,station_id,name,address,town,zip_code,longitude,latitude,road_side,restriction,sender,schedule,region_id,province_id,municipality_id,region_name,province_name,municipality_name,date,gasoline_95E5,gasoline_95E5_premium,gasoline_95E10,gasoline_98E5,gasoline_98E10,diesel_A,diesel_B,diesel_premium,bioetanol,biodiesel,lpg,cng,lng,hydrogen
0,2596,PETRONOR,"CR PM-401, 0,4",FELANITX                 ,07200,3.158722,39.473667,I,P,dm,L-D: 00:00-23:59,4,7,818,Baleares,BALEARS (ILLES),Felanitx,2021-01-30,1.317,,,1.475,,1.198,,1.228,,,,,,
1,2727,CEPSA,"AVENIDA BIENVENIDOS, 36",CALA D'OR                ,07660,3.226833,39.379917,D,P,OM,L-D: 24H,4,7,853,Baleares,BALEARS (ILLES),Santanyí,2021-01-11,1.304,1.364,,1.449,,1.182,,1.243,,,,,,
2,2688,REPSOL,"CALLE ARAGON, 180",PALMA                    ,07008,2.671556,39.584278,D,P,dm,L-D: 24H,4,7,836,Baleares,BALEARS (ILLES),Palma de Mallorca,2021-01-27,1.288,,,1.424,,1.175,,1.255,,,,,,
3,2643,BP  SANTA EULALIA - IBIZA,"AVENIDA SAN JAUME, 30",SANTA EULALIA            ,07840,1.531861,38.983528,N,P,dm,L-D: 07:00-23:00,4,7,850,Baleares,BALEARS (ILLES),Santa Eulalia del Río,2021-01-29,1.35,,,1.491,,1.246,,1.335,,,,,,
4,2718,REPSOL,"CARRETERA PM-334 KM. 1,1",PETRA                    ,07520,3.109028,39.625889,D,P,dm,L-S: 06:30-21:00; D: 07:00-21:00,4,7,837,Baleares,BALEARS (ILLES),Petra,2021-01-05,1.288,,,1.409,,1.168,0.855,1.248,,,,,,
5,2743,REPSOL,"CALLE ARAGON, 217",PALMA                    ,07008,2.676472,39.589167,I,P,dm,L-D: 24H,4,7,836,Baleares,BALEARS (ILLES),Palma de Mallorca,2021-01-30,1.315,,,1.455,,1.195,,1.275,,,,,,
6,2621,CEPSA,"CALLE SAN CRISTOBAL, S/N",LLUCMAJOR                ,07620,2.75975,39.501,D,P,dm,L-S: 06:00-22:00,4,7,826,Baleares,BALEARS (ILLES),Llucmajor,2021-01-04,1.314,1.384,,,,1.175,,1.244,,,,,,
7,2631,BP BALMES,"CALLE JAUME BALMES, 44",PALMA                    ,07004,2.659194,39.580194,N,P,dm,L-D: 06:30-22:30,4,7,836,Baleares,BALEARS (ILLES),Palma de Mallorca,2021-01-14,1.277,,,1.402,,1.166,,1.236,,,,,,
8,2637,CEPSA,"AVENIDA CARLOS V, S/N",LLUCMAJOR                ,07620,2.895222,39.485861,D,P,dm,L-D: 06:00-22:00,4,7,826,Baleares,BALEARS (ILLES),Llucmajor,2021-01-05,1.314,1.384,,1.448,,1.175,,1.244,,,,,,
9,2696,CEPSA,"CARRETERA PM-803 KM. 14,3",SANT JOSEP DE SA TALAIA  ,07830,1.305611,38.92175,D,P,dm,L-D: 06:00-23:59,4,7,846,Baleares,BALEARS (ILLES),Sant Josep de sa Talaia,2021-01-11,1.334,1.394,,,,1.225,,1.295,,,,,,
10,13474,SHELL,"CALLE HORT DE SES ÀNIMES, 23",PALMA                    ,07007,2.685778,39.567083,D,P,dm,L-D: 24H,4,7,836,Baleares,BALEARS (ILLES),Palma de Mallorca,2021-01-09,1.228,,,1.328,,1.128,,1.228,,,,,,
11,2718,REPSOL,"CARRETERA PM-334 KM. 1,1",PETRA                    ,07520,3.109028,39.625889,D,P,dm,L-S: 06:30-21:00; D: 07:00-21:00,4,7,837,Baleares,BALEARS (ILLES),Petra,2021-01-07,1.288,,,1.409,,1.168,0.855,1.248,,,,,,
12,2596,PETRONOR,"CR PM-401, 0,4",FELANITX                 ,07200,3.158722,39.473667,I,P,dm,L-D: 00:00-23:59,4,7,818,Baleares,BALEARS (ILLES),Felanitx,2021-01-16,1.318,,,1.448,,1.188,,1.218,,,,,,
13,13135,BUGA 2000,"CARRER M.MEDITERRÀNIA, 24",SANTA PONÇA              ,07180,2.504611,39.529111,I,P,dm,L-D: 06:00-23:00,4,7,805,Baleares,BALEARS (ILLES),Calvià,2021-01-31,1.198,,,,,,,1.098,,,,,,
14,13474,SHELL,"CALLE HORT DE SES ÀNIMES, 23",PALMA                    ,07007,2.685778,39.567083,D,P,dm,L-D: 24H,4,7,836,Baleares,BALEARS (ILLES),Palma de Mallorca,2021-01-07,1.228,,,1.328,,1.128,,1.228,,,,,,
15,9870,SHELL,"CARRETERA 3301 KM. 1,5",SINEU                    ,07510,3.02825,39.641944,D,P,dm,L-D: 24H,4,7,856,Baleares,BALEARS (ILLES),Sineu,2021-01-08,1.285,,,1.419,,1.169,0.819,1.245,,,,,,
16,13474,SHELL,"CALLE HORT DE SES ÀNIMES, 23",PALMA                    ,07007,2.685778,39.567083,D,P,dm,L-D: 24H,4,7,836,Baleares,BALEARS (ILLES),Palma de Mallorca,2021-01-29,1.248,,,1.358,,1.148,,1.248,,,,,,
17,2725,CEPSA,CARRETERA C-731 KM. 13,SANT ANTONI DE PORTMANY  ,07820,1.331,38.975056,I,P,dm,L-D: 24H,4,7,843,Baleares,BALEARS (ILLES),Sant Antoni de Portmany,2021-01-11,1.334,1.394,,,,1.225,,1.295,,,,,,
18,2637,CEPSA,"AVENIDA CARLOS V, S/N",LLUCMAJOR                ,07620,2.895222,39.485861,D,P,dm,L-D: 06:00-22:00,4,7,826,Baleares,BALEARS (ILLES),Llucmajor,2021-01-02,1.314,1.384,,1.448,,1.169,,1.244,,,,,,
19,2699,REPSOL,"C-712 km 22,3",CA'N PICAFORT            ,07458,3.15075,39.763139,I,P,dm,L-D: 06:00-22:00,4,7,851,Baleares,BALEARS (ILLES),Santa Margalida,2021-01-10,1.308,,,1.445,,1.199,,1.268,,,,,,
20,2568,REPSOL,"CARRETERA MA-3431 KM. 0,200",MURO                     ,07440,3.052639,39.7415,I,P,dm,L-S: 06:00-22:00; D: 08:00-14:00,4,7,835,Baleares,BALEARS (ILLES),Muro,2021-01-08,1.288,,,1.414,,1.179,,1.248,,,,,,
21,13267,CARBURANTS LOW COST,"CALLE B, 35",MERCADAL (ES)            ,07740,4.081806,39.987722,D,P,dm,L-D: 24H,4,7,832,Baleares,BALEARS (ILLES),Mercadal (Es),2021-01-20,1.28,,,,,1.199,,,,,,,,
22,13569,GALP,"AVENIDA JUAN CARLOS I, 68",CAPDEPERA                ,07580,3.446389,39.703889,D,P,dm,L-S: 06:00-22:00; D: 07:00-22:00,4,7,808,Baleares,BALEARS (ILLES),Capdepera,2021-01-02,1.268,,,,,1.148,,,,,,,,
23,2668,CEPSA,"CALLE CAUTIVOS DE CONSTANTINIPLA, S/N",CIUTADELLA DE MENORCA    ,07760,3.843556,40.001389,D,P,dm,L-D: 06:00-22:00,4,7,810,Baleares,BALEARS (ILLES),Ciutadella de Menorca,2021-01-16,1.295,,,,,1.195,,,,,,,,
24,2589,REPSOL,"AVINGUDA BENVINGUTS, 64",CALA D'OR                ,07660,3.227056,39.378722,D,P,dm,L-S: 07:30-19:45; D: 08:00-14:00,4,7,853,Baleares,BALEARS (ILLES),Santanyí,2021-01-17,1.295,,,,,1.185,,,,,,,,
25,2668,CEPSA,"CALLE CAUTIVOS DE CONSTANTINIPLA, S/N",CIUTADELLA DE MENORCA    ,07760,3.843556,40.001389,D,P,dm,L-D: 06:00-22:00,4,7,810,Baleares,BALEARS (ILLES),Ciutadella de Menorca,2021-01-04,1.285,,,,,1.175,,,,,,,,
26,13162,PETROEST,"CALLE GABRIEL ALZAMORA, 25",PALMA                    ,07008,2.674778,39.589306,D,P,dm,L-D: 24H,4,7,836,Baleares,BALEARS (ILLES),Palma de Mallorca,2021-01-03,1.127,,,,,1.054,,,,,,,,
27,2668,CEPSA,"CALLE CAUTIVOS DE CONSTANTINIPLA, S/N",CIUTADELLA DE MENORCA    ,07760,3.843556,40.001389,D,P,dm,L-D: 06:00-22:00,4,7,810,Baleares,BALEARS (ILLES),Ciutadella de Menorca,2021-01-25,1.295,,,,,1.195,,,,,,,,
28,2664,CEPSA,"PLAZA HOSTALS, 4",SANTA MARIA DEL CAMI     ,07320,2.773861,39.651694,D,P,dm,L-S: 06:30-20:30,4,7,852,Baleares,BALEARS (ILLES),Santa María del Camí,2021-01-19,1.304,,,,,1.189,,,,,,,,
29,13569,GALP,"AVENIDA JUAN CARLOS I, 68",CAPDEPERA                ,07580,3.446389,39.703889,D,P,dm,L-S: 06:00-22:00; D: 07:00-22:00,4,7,808,Baleares,BALEARS (ILLES),Capdepera,2021-01-17,1.308,,,,,1.178,,,,,,,,
30,2571,REPSOL,"CARRETERA LA SABINA- EL PILAR KM. 4,6",SANT FRANCESC FORMENTERA ,07860,1.445417,38.708444,I,P,dm,L-S: 07:00-21:00; D: 09:00-21:00,4,7,820,Baleares,BALEARS (ILLES),Formentera,2021-01-08,1.32,,,,,1.209,,,,,,,,
31,2701,REPSOL,"AVENIDA SANTA MARGARITA, 49",MURO                     ,07440,3.059583,39.729306,D,P,dm,L-S: 06:00-22:00,4,7,835,Baleares,BALEARS (ILLES),Muro,2021-01-15,1.308,,,1.445,,1.199,0.819,,,,,,,
32,2701,REPSOL,"AVENIDA SANTA MARGARITA, 49",MURO                     ,07440,3.059583,39.729306,D,P,dm,L-S: 06:00-22:00,4,7,835,Baleares,BALEARS (ILLES),Muro,2021-01-21,1.328,,,1.455,,1.209,0.829,,,,,,,
33,2571,REPSOL,"CARRETERA LA SABINA- EL PILAR KM. 4,6",SANT FRANCESC FORMENTERA ,07860,1.445417,38.708444,I,P,dm,L-S: 07:00-21:00; D: 09:00-21:00,4,7,820,Baleares,BALEARS (ILLES),Formentera,2021-01-05,1.32,,,,,1.209,,,,,,,,
34,2727,CEPSA,"AVENIDA BIENVENIDOS, 36",CALA D'OR                ,07660,3.226833,39.379917,D,P,OM,L-D: 24H,4,7,853,Baleares,BALEARS (ILLES),Santanyí,2021-01-03,1.293,1.353,,1.439,,1.159,,1.229,,,,,,
35,2632,CEPSA,"CAMINO DE LAS MARAVILLA, S/N",PLATJA DE PALMA          ,07608,2.749361,39.521167,D,P,dm,L-D: 07:00-21:00,4,7,836,Baleares,BALEARS (ILLES),Palma de Mallorca,2021-01-28,1.344,1.414,,,,1.199,,1.269,,,,,,
36,2632,CEPSA,"CAMINO DE LAS MARAVILLA, S/N",PLATJA DE PALMA          ,07608,2.749361,39.521167,D,P,dm,L-D: 07:00-21:00,4,7,836,Baleares,BALEARS (ILLES),Palma de Mallorca,2021-01-31,1.344,1.414,,,,1.199,,1.269,,,,,,
37,2675,CEPSA,"CARRETERA LLUCMAJOR, KM10 KM. 10",SON SANT JOAN            ,07199,2.750694,39.534972,D,P,dm,L-S: 06:00-22:00; D: 08:00-14:00,4,7,836,Baleares,BALEARS (ILLES),Palma de Mallorca,2021-01-30,1.344,,,,,1.199,0.829,1.269,,,,,,
38,2568,REPSOL,"CARRETERA MA-3431 KM. 0,200",MURO                     ,07440,3.052639,39.7415,I,P,dm,L-S: 06:00-22:00; D: 08:00-14:00,4,7,835,Baleares,BALEARS (ILLES),Muro,2021-01-27,1.328,,,1.455,,1.209,,1.289,,,,,,
39,2568,REPSOL,"CARRETERA MA-3431 KM. 0,200",MURO                     ,07440,3.052639,39.7415,I,P,dm,L-S: 06:00-22:00; D: 08:00-14:00,4,7,835,Baleares,BALEARS (ILLES),Muro,2021-01-29,1.328,,,1.455,,1.209,,1.289,,,,,,
40,2626,REPSOL,"CARRETERA IBIZA - SAN JUAN KM. 1,7",EIVISSA                  ,07800,1.440778,38.922694,D,P,dm,L-D: 07:00-23:00,4,7,814,Baleares,BALEARS (ILLES),Eivissa,2021-01-26,1.355,,,1.505,,1.239,,1.329,,,,,,
41,2585,PETRONOR,"CALLE GREMI DE SUCRERS I CANDELERS, 24",PALMA                    ,07009,2.663944,39.610917,D,P,dm,L-V: 06:30-17:00,4,7,836,Baleares,BALEARS (ILLES),Palma de Mallorca,2021-01-06,1.275,,,1.425,,1.159,,1.219,,,,,,
42,2599,CEPSA,"CARRETERA C-715 KM. 42,5",VILAFRANCA DE BONANY     ,07250,3.134056,39.575611,D,P,dm,L-D: 07:00-23:00,4,7,860,Baleares,BALEARS (ILLES),Vilafranca de Bonany,2021-01-27,1.314,1.374,,,,1.189,0.859,1.259,,,,,,
43,9870,SHELL,"CARRETERA 3301 KM. 1,5",SINEU                    ,07510,3.02825,39.641944,D,P,dm,L-D: 24H,4,7,856,Baleares,BALEARS (ILLES),Sineu,2021-01-13,1.295,,,1.425,,1.179,0.819,1.259,,,,,,
44,2654,REPSOL,"CALLE LLUCMAJOR, 148",PALMA                    ,07007,2.682333,39.557861,D,P,dm,L-V: 06:00-22:00; S-D: 07:00-22:00,4,7,836,Baleares,BALEARS (ILLES),Palma de Mallorca,2021-01-27,1.325,,,1.475,,1.199,,1.279,,,,,,
45,12582,REPSOL BUTANO,"CAMI LA MILANA, 49",SON SANT JOAN            ,07198,2.720917,39.565639,I,P,dm,L-D: 07:00-21:00,4,7,836,Baleares,BALEARS (ILLES),Palma de Mallorca,2021-01-13,,,,,,,,,,,0.639,,,
46,12579,REPSOL BUTANO,"CAMINO PUIG DE SANTA MAGDALENA, S/N",INCA                     ,07300,2.939861,39.731333,D,P,dm,L-V: 08:00-18:30; S: 08:30-13:00,4,7,822,Baleares,BALEARS (ILLES),Inca,2021-01-08,,,,,,,,,,,0.629,,,
47,14144,REPSOL,"CARRETERA MA-4040 KM. 2,5",SON SERVERA              ,07550,3.373417,39.643333,I,P,dm,L-V: 08:00-17:00,4,7,858,Baleares,BALEARS (ILLES),Son Servera,2021-01-03,,,,,,,,,,,0.615,,,
48,12577,REPSOL BUTANO,"CARRETERA PMV-1031 KM. 1,5",CALVIA                   ,07184,2.490722,39.5685,I,P,dm,L-V: 09:00-16:00; S: 08:30-13:30,4,7,805,Baleares,BALEARS (ILLES),Calvià,2021-01-11,,,,,,,,,,,0.629,,,
49,12582,REPSOL BUTANO,"CAMI LA MILANA, 49",SON SANT JOAN            ,07198,2.720917,39.565639,I,P,dm,L-D: 07:00-21:00,4,7,836,Baleares,BALEARS (ILLES),Palma de Mallorca,2021-01-31,,,,,,,,,,,0.639,,,
50,12577,REPSOL BUTANO,"CARRETERA PMV-1031 KM. 1,5",CALVIA                   ,07184,2.490722,39.5685,I,P,dm,L-V: 09:00-16:00; S: 08:30-13:30,4,7,805,Baleares,BALEARS (ILLES),Calvià,2021-01-05,,,,,,,,,,,0.619,,,
51,13028,EROSKI,"AVENIDA TALAIOT, 1",SANT LLUIS               ,07710,4.259028,39.8585,D,P,dm,L-D: 24H,4,7,848,Baleares,BALEARS (ILLES),Sant Lluís,2021-01-20,,,,,,1.199,,,,,,,,
52,14144,REPSOL,"CARRETERA MA-4040 KM. 2,5",SON SERVERA              ,07550,3.373417,39.643333,I,P,dm,L-V: 08:00-17:00,4,7,858,Baleares,BALEARS (ILLES),Son Servera,2021-01-25,,,,,,,,,,,0.629,,,
53,12582,REPSOL BUTANO,"CAMI LA MILANA, 49",SON SANT JOAN            ,07198,2.720917,39.565639,I,P,dm,L-D: 07:00-21:00,4,7,836,Baleares,BALEARS (ILLES),Palma de Mallorca,2021-01-06,,,,,,,,,,,0.626,,,
54,12574,REPSOL BUTANO,"CARRETERA MA-15 KM. 44,5",MANACOR                  ,07500,3.159556,39.573556,D,P,dm,L-V: 07:00-19:00; S: 07:00-18:00,4,7,827,Baleares,BALEARS (ILLES),Manacor,2021-01-06,,,,,,,,,,,0.639,,,
55,14144,REPSOL,"CARRETERA MA-4040 KM. 2,5",SON SERVERA              ,07550,3.373417,39.643333,I,P,dm,L-V: 08:00-17:00,4,7,858,Baleares,BALEARS (ILLES),Son Servera,2021-01-18,,,,,,,,,,,0.639,,,
56,12579,REPSOL BUTANO,"CAMINO PUIG DE SANTA MAGDALENA, S/N",INCA                     ,07300,2.939861,39.731333,D,P,dm,L-V: 08:00-18:30; S: 08:30-13:00,4,7,822,Baleares,BALEARS (ILLES),Inca,2021-01-05,,,,,,,,,,,0.619,,,
57,2694,SHELL,"AVENIDA IGNACIO WALLIS, 58",EIVISSA                  ,07800,1.429222,38.914444,N,P,dm,L-D: 07:00-22:45,4,7,814,Baleares,BALEARS (ILLES),Eivissa,2021-01-18,1.349,,,1.499,,1.249,,,,,,,,
58,2588,CEPSA ,"CARRER ALCALDE BARTOLOME ROSELLO SALA, 2",EIVISSA                  ,07800,1.437167,38.918833,D,P,dm,L-D: 24H,4,7,814,Baleares,BALEARS (ILLES),Eivissa,2021-01-15,1.349,,,1.509,,1.249,,1.349,,,,,,
59,2707,REPSOL,CARRETERA C-717 KM. 38,SANTANYI                 ,07650,3.024111,39.426417,I,P,dm,L-D: 06:00-22:30,4,7,853,Baleares,BALEARS (ILLES),Santanyí,2021-01-24,1.349,1.389,,1.499,,1.219,0.906,1.309,,,,,,
60,2574,REPSOL,"CARRETERA PM-602 KM. 8,2",LLUCMAJOR                ,07620,2.789389,39.493778,I,P,dm,L-D: 06:00-22:00,4,7,826,Baleares,BALEARS (ILLES),Llucmajor,2021-01-22,1.349,1.389,,1.509,,1.219,,1.309,,,0.649,,,
61,2680,CEPSA,"CARRER CONVENT, 29",SANTANYI                 ,07650,3.166778,39.383944,I,P,dm,L-S: 07:00-21:00,4,7,853,Baleares,BALEARS (ILLES),Santanyí,2021-01-19,1.349,1.425,,,,1.225,0.879,1.309,,,,,,
62,2586,REPSOL,CARRETERA PM-602 KM. 5,ARENAL (S')              ,07600,2.831722,39.483944,D,P,dm,L-D: 06:00-22:00,4,7,826,Baleares,BALEARS (ILLES),Llucmajor,2021-01-24,1.349,,,1.499,,1.219,,1.299,,,,,,
63,11781,BP,"CALLE DES LLAURADORS, 19",SANT RAFEL               ,07816,1.41275,38.94275,D,P,dm,L-D: 07:00-23:00,4,7,843,Baleares,BALEARS (ILLES),Sant Antoni de Portmany,2021-01-25,1.349,,,1.489,,1.249,,1.319,,,,,,
64,13538,EROSKI,"CARRETERA MA-13 A, ESQUINA CAMI AGUA KM. S/N",BINISSALEM               ,07350,2.851556,39.686806,N,P,dm,L-D: 24H,4,7,802,Baleares,BALEARS (ILLES),Binissalem,2021-01-29,1.249,,,,,1.129,,,,,,,,
65,2623,CEPSA,"AVENIDA DOCTOR FLEMING, S/N",SANT ANTONI DE PORTMANY  ,07820,1.309222,38.972528,D,P,dm,L-D: 07:00-23:00,4,7,843,Baleares,BALEARS (ILLES),Sant Antoni de Portmany,2021-01-22,1.369,,,1.519,,1.259,,1.339,,,,,,
66,13184,PETROEST,"CALLE GREMI CIRUGIANS I BARBERS, 11",PALMA                    ,07009,2.65825,39.600639,D,P,dm,L-D: 24H,4,7,836,Baleares,BALEARS (ILLES),Palma de Mallorca,2021-01-10,1.149,,,,,1.069,,,,,,,,
67,2618,CEPSA,"CALLE CAMINO DE LOS REYES, 201",PALMA                    ,07010,2.633472,39.593,D,P,dm,L-D: 24H,4,7,836,Baleares,BALEARS (ILLES),Palma de Mallorca,2021-01-11,1.269,,,1.414,,1.175,,1.245,,,,,,
68,14411,GALP,"GRAN VÍA ASIMA, 23",PALMA                    ,07009,2.667889,39.607194,D,P,dm,L-D: 06:00-22:00,4,7,836,Baleares,BALEARS (ILLES),Palma de Mallorca,2021-01-24,1.269,,,,,1.159,,,,,,,,
69,2720,REPSOL,CARRETERA PALMA-PUERTO ANDRATX KM. 19,COSTA DE LA CALMA        ,07183,2.486722,39.526472,D,P,dm,L-S: 06:00-22:00,4,7,805,Baleares,BALEARS (ILLES),Calvià,2021-01-09,1.269,,,1.419,,1.159,,1.249,,,,,,
70,2583,CEPSA,"CARRETERA PALMA NOVA - CALVIA KM. 5,5",CALVIA                   ,07184,2.507667,39.559833,I,P,dm,L-D: 06:00-22:00,4,7,805,Baleares,BALEARS (ILLES),Calvià,2021-01-15,1.269,,,1.444,,1.169,,1.269,,,,,,
71,13088,AUTONETOIL,"CALLE FERRERS, 12",CIUTADELLA DE MENORCA    ,07760,3.853361,40.007139,D,P,dm,L-D: 24H,4,7,810,Baleares,BALEARS (ILLES),Ciutadella de Menorca,2021-01-25,1.269,,,,,1.169,,1.199,,,,,,
72,2695,BP AMANECER,"CALLE ALFONS EL MAGNANIM, 90",PALMA                    ,07004,2.654472,39.594167,N,P,dm,L-D: 24H,4,7,836,Baleares,BALEARS (ILLES),Palma de Mallorca,2021-01-26,1.289,,,1.425,,1.185,,1.254,,,,,,
73,2672,CEPSA,"CALLE TRAJINERS, SN",POBLA (SA)               ,07420,3.016944,39.771472,I,P,dm,L-S: 06:00-21:00,4,7,838,Baleares,BALEARS (ILLES),Pobla (Sa),2021-01-04,1.289,1.349,,,,1.179,0.774,1.245,,,,,,
74,2695,BP AMANECER,"CALLE ALFONS EL MAGNANIM, 90",PALMA                    ,07004,2.654472,39.594167,N,P,dm,L-D: 24H,4,7,836,Baleares,BALEARS (ILLES),Palma de Mallorca,2021-01-19,1.289,,,1.425,,1.185,,1.254,,,,,,
75,2742,CEPSA,"CARRETERA C-711 KM. 16,5",BUNYOLA                  ,07110,2.68975,39.712917,I,P,dm,L-D: 07:00-21:00,4,7,804,Baleares,BALEARS (ILLES),Bunyola,2021-01-09,1.289,1.349,,,,1.175,,1.245,,,,,,
76,13588,GALP,"CALLE FUSTER, 35",POLLENÇA                 ,07460,3.030611,39.885639,D,P,dm,L-D: 06:00-22:00,4,7,839,Baleares,BALEARS (ILLES),Pollença,2021-01-24,1.289,,,,,1.189,,,,,,,,
77,2598,CEPSA,"AVENIDA JOSE ANSELMO CLAVE, S/N",MAO                      ,07703,4.259389,39.881972,D,P,dm,L-D: 24H,4,7,829,Baleares,BALEARS (ILLES),Mahón,2021-01-17,1.289,,,,,1.189,,,,,,,,
78,2669,CEPSA,"CALLE BALMES, 55",ALAIOR                   ,07730,4.136528,39.931667,D,P,dm,L: 07:00-22:00,4,7,794,Baleares,BALEARS (ILLES),Alaior,2021-01-03,1.289,,,,,1.189,,,,,,,,
79,2712,REPSOL,"CR C-713, 13,1",SANTA MARIA DEL CAMI     ,07320,2.757056,39.64825,I,P,dm,L-D: 06:00-22:00,4,7,852,Baleares,BALEARS (ILLES),Santa María del Camí,2021-01-04,1.289,,,1.419,,1.169,,,,,,,,
80,2409,REPSOL,"CALLE RECH ESQ CREU, S/N",BINISSALEM               ,07350,2.839972,39.686861,D,P,dm,L-D: 06:00-22:00,4,7,802,Baleares,BALEARS (ILLES),Binissalem,2021-01-05,1.289,,,,,1.169,,,,,,,,
81,2599,CEPSA,"CARRETERA C-715 KM. 42,5",VILAFRANCA DE BONANY     ,07250,3.134056,39.575611,D,P,dm,L-D: 07:00-23:00,4,7,860,Baleares,BALEARS (ILLES),Vilafranca de Bonany,2021-01-02,1.289,1.349,,,,1.159,0.839,1.229,,,,,,
82,2742,CEPSA,"CARRETERA C-711 KM. 16,5",BUNYOLA                  ,07110,2.68975,39.712917,I,P,dm,L-D: 07:00-21:00,4,7,804,Baleares,BALEARS (ILLES),Bunyola,2021-01-02,1.289,1.349,,,,1.159,,1.229,,,,,,
83,2702,REPSOL,"CALLE MANACOR, 336",SON SANT JOAN            ,07198,2.721056,39.571194,D,P,dm,L: 06:00-22:00,4,7,836,Baleares,BALEARS (ILLES),Palma de Mallorca,2021-01-03,1.289,,,1.419,,1.159,0.839,1.229,,,,,,
84,2684,CEPSA,"CARRETERA C-715 KM. 42,5",PETRA                    ,07520,3.133833,39.576111,I,P,dm,L-V: 06:00-21:00; S: 07:00-20:00; D: 10:00-20:00,4,7,837,Baleares,BALEARS (ILLES),Petra,2021-01-02,1.289,1.349,,,,1.159,,1.229,,,,,,
85,2606,BP,"CALLE TRAMUNTANA, S/N",CAN PASTILLA             ,07610,2.719972,39.536722,D,P,dm,L-D: 24H,4,7,836,Baleares,BALEARS (ILLES),Palma de Mallorca,2021-01-03,1.289,,,1.419,,1.169,,1.249,,,,,,
86,12188,CEPSA,"RONDA DE PEGUERA, SN",CALVIA                   ,07184,2.451583,39.544306,D,P,OM,L-D: 06:00-22:00,4,7,805,Baleares,BALEARS (ILLES),Calvià,2021-01-11,1.289,,,1.434,,1.179,,1.249,,,,,,
87,2604,CEPSA,"CARRETERA C-711 KM. 16,5",BUNYOLA                  ,07110,2.69025,39.712667,D,P,dm,L-D: 07:00-21:30,4,7,804,Baleares,BALEARS (ILLES),Bunyola,2021-01-12,1.289,1.349,,,,1.179,,1.249,,,,,,
88,2721,REPSOL,"CARRETERA PALMA-ANDRATX KM, 18 KM. 18",COSTA DE LA CALMA        ,07183,2.486528,39.526472,I,P,dm,L-D: 24H,4,7,805,Baleares,BALEARS (ILLES),Calvià,2021-01-06,1.289,,,1.439,,1.179,,1.269,,,0.679,,,
89,2666,BP,CARRETERA CTRA DE MAO A CIUTADELLA ME-1 KM. 23,MERCADAL (ES)            ,07740,4.071667,39.984639,N,P,dm,L-S: 07:00-21:00; D: 08:00-21:00,4,7,832,Baleares,BALEARS (ILLES),Mercadal (Es),2021-01-07,1.289,,,,,1.199,0.859,1.299,,,,,,
90,2693,REPSOL,"CL CAMINO CA,N PASTILLA, 37 (CAMNIO CAN PASTILLA 37)",PALMA                    ,07007,2.703083,39.54775,I,P,dm,L-D: 06:00-22:00,4,7,836,Baleares,BALEARS (ILLES),Palma de Mallorca,2021-01-06,1.289,,,1.439,,1.159,,1.219,,,,,,
91,2687,REPSOL,"CR C-715, 48",MANACOR                  ,07500,3.200528,39.574167,I,P,dm,L-V: 06:00-22:00; S-D: 07:00-22:00,4,7,827,Baleares,BALEARS (ILLES),Manacor,2021-01-03,1.289,,,1.429,,1.159,,1.239,,,,,,
92,2610,REPSOL,"CALLE CAPITAN SALOM, 31",PALMA                    ,07004,2.652889,39.586417,D,P,dm,L-D: 24H,4,7,836,Baleares,BALEARS (ILLES),Palma de Mallorca,2021-01-03,1.289,,,1.429,,1.169,,1.239,,,,,,
93,2693,REPSOL,"CL CAMINO CA,N PASTILLA, 37 (CAMNIO CAN PASTILLA 37)",PALMA                    ,07007,2.703083,39.54775,I,P,dm,L-D: 06:00-22:00,4,7,836,Baleares,BALEARS (ILLES),Palma de Mallorca,2021-01-03,1.289,,,1.429,,1.159,,1.239,,,,,,
94,2619,REPSOL,"CALLE EUSEBIO ESTADA, 64",PALMA                    ,07004,2.660667,39.582056,D,P,dm,L-S: 06:00-22:00; D: 06:00-14:00,4,7,836,Baleares,BALEARS (ILLES),Palma de Mallorca,2021-01-02,1.289,,,1.419,,1.159,,1.239,,,,,,
95,2713,REPSOL,"AVENIDA JUAN CARLOS I, S/N",CAPDEPERA                ,07580,3.451667,39.705278,D,P,dm,L-D: 06:00-22:00,4,7,808,Baleares,BALEARS (ILLES),Capdepera,2021-01-02,1.289,,,1.429,,1.159,,1.239,,,,,,
96,2693,REPSOL,"CL CAMINO CA,N PASTILLA, 37 (CAMNIO CAN PASTILLA 37)",PALMA                    ,07007,2.703083,39.54775,I,P,dm,L-D: 06:00-22:00,4,7,836,Baleares,BALEARS (ILLES),Palma de Mallorca,2021-01-02,1.289,,,1.429,,1.159,,1.239,,,,,,
97,2584,REPSOL,"CALLE GREMI SUCRERS Y CANDELERS, 5",PALMA                    ,07009,2.656056,39.606667,D,P,dm,L-S: 06:00-22:00; D: 06:00-14:00,4,7,836,Baleares,BALEARS (ILLES),Palma de Mallorca,2021-01-03,1.289,,,1.419,,1.159,,1.239,,,0.655,,,
98,2587,CEPSA,"CALLE BINIAMAR, 16",PALMA                    ,07008,2.678806,39.581722,D,P,dm,L-D: 06:00-22:00,4,7,836,Baleares,BALEARS (ILLES),Palma de Mallorca,2021-01-24,1.289,1.349,,1.434,,1.189,,1.259,,,,,,
99,12188,CEPSA,"RONDA DE PEGUERA, SN",CALVIA                   ,07184,2.451583,39.544306,D,P,OM,L-D: 06:00-22:00,4,7,805,Baleares,BALEARS (ILLES),Calvià,2021-01-14,1.289,,,1.434,,1.189,,1.259,,,,,,
100,2613,CEPSA,CARRETERA VIEJA DE BUÑOLA KM. 15,PALMA                    ,07009,2.668944,39.593333,D,P,dm,L-S: 06:00-22:00; D: 08:00-16:00,4,7,836,Baleares,BALEARS (ILLES),Palma de Mallorca,2021-01-29,1.289,,,1.434,,1.189,,1.259,,,,,,
101,2611,BP ES FORTI,"CALLE PASCUAL RIBOT, S/N",PALMA                    ,07013,2.636444,39.579306,N,P,dm,L-D: 06:00-22:00,4,7,836,Baleares,BALEARS (ILLES),Palma de Mallorca,2021-01-08,1.289,,,1.431,,1.169,,1.259,,,,,,
102,2676,BP MUNAR CAPO,"CR STA. MARGARITA-PETRA KM  10,7",CA'N PICAFORT            ,07450,3.10075,39.701556,N,P,dm,L-S: 07:00-21:00,4,7,851,Baleares,BALEARS (ILLES),Santa Margalida,2021-01-08,1.289,,,,,1.178,,1.259,,,,,,
103,2639,BP,CARRETERA MURO KM. 0,POBLA (SA)               ,07420,3.029667,39.765472,I,P,dm,L-S: 06:00-21:00,4,7,838,Baleares,BALEARS (ILLES),Pobla (Sa),2021-01-04,1.289,,,1.409,,1.179,0.769,1.259,,,,,,
104,2613,CEPSA,CARRETERA VIEJA DE BUÑOLA KM. 15,PALMA                    ,07009,2.668944,39.593333,D,P,dm,L-S: 06:00-22:00; D: 08:00-16:00,4,7,836,Baleares,BALEARS (ILLES),Palma de Mallorca,2021-01-25,1.289,,,1.434,,1.189,,1.259,,,,,,
105,12188,CEPSA,"RONDA DE PEGUERA, SN",CALVIA                   ,07184,2.451583,39.544306,D,P,OM,L-D: 06:00-22:00,4,7,805,Baleares,BALEARS (ILLES),Calvià,2021-01-22,1.289,,,1.434,,1.189,,1.259,,,,,,
106,2733,REPSOL,"CL POLLENTIA ESQ. CL. L,ESTEL, S.N.",ALCUDIA                  ,07400,3.127083,39.850056,I,P,dm,L-D: 07:00-19:00,4,7,796,Baleares,BALEARS (ILLES),Alcúdia,2021-01-02,1.289,,,1.413,,1.189,,1.259,,,,,,
107,2721,REPSOL,"CARRETERA PALMA-ANDRATX KM, 18 KM. 18",COSTA DE LA CALMA        ,07183,2.486528,39.526472,I,P,dm,L-D: 24H,4,7,805,Baleares,BALEARS (ILLES),Calvià,2021-01-05,1.289,,,1.439,,1.169,,1.259,,,0.679,,,
108,14218,AUTONETOIL,"CALLE POIMA, 12",PALMA                    ,07011,2.632778,39.595056,D,P,dm,L-D: 24H,4,7,836,Baleares,BALEARS (ILLES),Palma de Mallorca,2021-01-30,1.189,,,,,1.099,,1.129,,,,,,
109,14128,AUTONETOIL,"CARRER DE SON PENDOLA, 1",PALMA                    ,07007,2.68,39.566222,D,P,dm,L-D: 24H,4,7,836,Baleares,BALEARS (ILLES),Palma de Mallorca,2021-01-30,1.189,,,,,1.099,,1.129,,,,,,
110,2719,REPSOL,"CTRA. MA-11, 30",SOLLER                   ,07100,2.708389,39.765778,D,P,dm,L-S: 06:00-22:00; D: 07:00-21:00,4,7,857,Baleares,BALEARS (ILLES),Sóller,2021-01-24,1.309,,,1.459,,1.189,,,,,,,,
111,2719,REPSOL,"CTRA. MA-11, 30",SOLLER                   ,07100,2.708389,39.765778,D,P,dm,L-S: 06:00-22:00; D: 07:00-21:00,4,7,857,Baleares,BALEARS (ILLES),Sóller,2021-01-22,1.309,,,1.459,,1.189,,,,,,,,
112,12410,REPSOL,"CAMINO SON FANGOS, 151",PLATJA DE PALMA          ,07610,2.735,39.535472,D,P,dm,L-D: 24H,4,7,836,Baleares,BALEARS (ILLES),Palma de Mallorca,2021-01-15,1.309,,,1.449,,1.189,,1.249,,,0.649,,,
113,2679,CEPSA,"AVENIDA FRANCESC DE BORJA MOLL, 61",SALINES (SES)            ,07640,3.046389,39.341333,I,P,dm,L-S: 08:00-20:00,4,7,842,Baleares,BALEARS (ILLES),Salines (Ses),2021-01-12,1.309,1.369,,,,1.179,,1.249,,,,,,
114,2728,PETRONOR,"CL ABEVRADERO-ESQUINA CR C-715, S.N (C-715 km 2)",ARTA                     ,07570,3.360278,39.696194,D,P,dm,L-D: 06:30-22:00,4,7,800,Baleares,BALEARS (ILLES),Artà,2021-01-10,1.309,,,1.433,,1.179,,1.249,,,,,,
115,2573,REPSOL,CARRETERA C-711 PALMA-SOLLER KM. 7,PALMA                    ,07120,2.663583,39.629778,D,P,dm,L-S: 07:00-22:00; D: 08:00-22:00,4,7,836,Baleares,BALEARS (ILLES),Palma de Mallorca,2021-01-21,1.309,,,1.459,,1.189,,1.269,,,,,,
116,2677,BP PLAYA DE PALMA,"CALLE MANUELA DE LOS HERREROS, 15",CAN PASTILLA             ,07610,2.72725,39.532722,N,P,dm,L-D: 06:00-22:00,4,7,836,Baleares,BALEARS (ILLES),Palma de Mallorca,2021-01-15,1.309,,,1.449,,1.189,,1.269,,,,,,
117,2609,REPSOL,"CAMINO VILETA (LA), S/N",PALMA                    ,07011,2.63075,39.583,D,P,dm,L-S: 06:00-23:59; D: 06:00-22:00,4,7,836,Baleares,BALEARS (ILLES),Palma de Mallorca,2021-01-13,1.309,,,1.459,,1.189,,1.269,,,,,,
118,11945,REPSOL,"CARRETERA C-717 KM. 53,7",SANTANYI                 ,07650,3.1475,39.370778,D,P,dm,L-D: 06:00-22:00,4,7,853,Baleares,BALEARS (ILLES),Santanyí,2021-01-07,1.309,,,1.439,,1.189,,1.269,,,,,,
119,2677,BP PLAYA DE PALMA,"CALLE MANUELA DE LOS HERREROS, 15",CAN PASTILLA             ,07610,2.72725,39.532722,N,P,dm,L-D: 06:00-22:00,4,7,836,Baleares,BALEARS (ILLES),Palma de Mallorca,2021-01-16,1.309,,,1.449,,1.189,,1.269,,,,,,
120,2648,BP,"CALLE LLUC  ESQUINA SELVA, INCA, S/N",INCA                     ,07300,2.911306,39.729278,D,P,dm,L-D: 24H,4,7,822,Baleares,BALEARS (ILLES),Inca,2021-01-14,1.309,,,1.449,,1.189,,1.269,,,,,,
121,2733,REPSOL,"CL POLLENTIA ESQ. CL. L,ESTEL, S.N.",ALCUDIA                  ,07400,3.127083,39.850056,I,P,dm,L-D: 07:00-19:00,4,7,796,Baleares,BALEARS (ILLES),Alcúdia,2021-01-08,1.309,,,1.433,,1.219,,1.289,,,,,,
122,2580, BP SAN LUIS,"AVENIDA DE SA PAU, 6",SANT LLUIS               ,07710,4.259056,39.852722,N,P,dm,L-D: 24H,4,7,848,Baleares,BALEARS (ILLES),Sant Lluís,2021-01-11,1.309,,,,,1.219,,1.319,,,,,,
123,9182,REPSOL,"VÍA CORNELI ATIC, 5",PORT D'ALCUDIA           ,07410,3.123333,39.843333,D,P,dm,L-D: 24H,4,7,796,Baleares,BALEARS (ILLES),Alcúdia,2021-01-09,1.309,1.389,,1.469,,1.219,,1.319,,,0.639,,,
124,2593,LAS GAVIOTAS,"CALLE CRUCERO, 12",PLATJA DE MURO           ,07408,3.109972,39.81425,D,P,dm,L-D: 08:00-16:00,4,7,835,Baleares,BALEARS (ILLES),Muro,2021-01-11,1.309,,,1.469,,1.219,,1.319,,,,,,
125,2678,REPSOL,"RONDA RONDA DEL OESTE, 123",PORTO CRISTO             ,07680,3.339444,39.547667,I,P,dm,L-D: 06:00-22:00,4,7,827,Baleares,BALEARS (ILLES),Manacor,2021-01-11,1.309,,,1.439,,1.179,0.839,1.259,,,,,,
126,2742,CEPSA,"CARRETERA C-711 KM. 16,5",BUNYOLA                  ,07110,2.68975,39.712917,I,P,dm,L-D: 07:00-21:00,4,7,804,Baleares,BALEARS (ILLES),Bunyola,2021-01-29,1.309,1.369,,,,1.189,,1.259,,,,,,
127,2663,REPSOL,"AE VIAL SALIDA AEROPUERTO, S.N.",PALMA,07611,2.722944,39.545917,D,P,dm,L-D: 24H,4,7,836,Baleares,BALEARS (ILLES),Palma de Mallorca,2021-01-18,1.309,,,1.449,,1.189,0.955,1.259,,,0.639,,,
128,2599,CEPSA,"CARRETERA C-715 KM. 42,5",VILAFRANCA DE BONANY     ,07250,3.134056,39.575611,D,P,dm,L-D: 07:00-23:00,4,7,860,Baleares,BALEARS (ILLES),Vilafranca de Bonany,2021-01-30,1.309,1.369,,,,1.189,0.859,1.259,,,,,,
129,2604,CEPSA,"CARRETERA C-711 KM. 16,5",BUNYOLA                  ,07110,2.69025,39.712667,D,P,dm,L-D: 07:00-21:30,4,7,804,Baleares,BALEARS (ILLES),Bunyola,2021-01-23,1.309,1.369,,,,1.189,,1.259,,,,,,
130,2599,CEPSA,"CARRETERA C-715 KM. 42,5",VILAFRANCA DE BONANY     ,07250,3.134056,39.575611,D,P,dm,L-D: 07:00-23:00,4,7,860,Baleares,BALEARS (ILLES),Vilafranca de Bonany,2021-01-29,1.309,1.369,,,,1.189,0.859,1.259,,,,,,
131,2604,CEPSA,"CARRETERA C-711 KM. 16,5",BUNYOLA                  ,07110,2.69025,39.712667,D,P,dm,L-D: 07:00-21:30,4,7,804,Baleares,BALEARS (ILLES),Bunyola,2021-01-29,1.309,1.369,,,,1.189,,1.259,,,,,,
132,11945,REPSOL,"CARRETERA C-717 KM. 53,7",SANTANYI                 ,07650,3.1475,39.370778,D,P,dm,L-D: 06:00-22:00,4,7,853,Baleares,BALEARS (ILLES),Santanyí,2021-01-06,1.309,,,1.439,,1.179,,1.259,,,,,,
133,2624,REPSOL,"CALLE GABRIEL ROCA, 129",COLONIA DE SANT JORDI    ,07638,3.000056,39.320111,D,P,dm,L-D: 06:00-22:00,4,7,842,Baleares,BALEARS (ILLES),Salines (Ses),2021-01-03,1.309,,,1.459,,1.179,,1.259,,,,,,
134,2693,REPSOL,"CL CAMINO CA,N PASTILLA, 37 (CAMNIO CAN PASTILLA 37)",PALMA                    ,07007,2.703083,39.54775,I,P,dm,L-D: 06:00-22:00,4,7,836,Baleares,BALEARS (ILLES),Palma de Mallorca,2021-01-15,1.309,,,1.469,,1.189,,1.279,,,,,,
135,2609,REPSOL,"CAMINO VILETA (LA), S/N",PALMA                    ,07011,2.63075,39.583,D,P,dm,L-S: 06:00-23:59; D: 06:00-22:00,4,7,836,Baleares,BALEARS (ILLES),Palma de Mallorca,2021-01-22,1.309,,,1.459,,1.199,,1.279,,,,,,
136,2676,BP MUNAR CAPO,"CR STA. MARGARITA-PETRA KM  10,7",CA'N PICAFORT            ,07450,3.10075,39.701556,N,P,dm,L-S: 07:00-21:00,4,7,851,Baleares,BALEARS (ILLES),Santa Margalida,2021-01-15,1.309,,,,,1.199,,1.279,,,,,,
137,2607,REPSOL,"CR PM-402, 1,6",MANACOR                  ,07500,3.220667,39.566944,D,P,dm,L-V: 06:00-22:00; S-D: 07:00-22:00,4,7,827,Baleares,BALEARS (ILLES),Manacor,2021-01-12,1.309,,,1.459,,1.189,0.842,1.279,,,,,,
138,2732,BP LLUCMAJOR,"CALLE LLUCMAJOR, 109",PALMA                    ,07007,2.678639,39.559083,I,P,dm,L-D: 24H,4,7,836,Baleares,BALEARS (ILLES),Palma de Mallorca,2021-01-20,1.309,,,1.451,,1.189,,1.279,,,,,,
139,2711,BP,"POLIGONO OLLERS, S/N",MARRATXINET              ,07141,2.725056,39.627528,D,P,dm,L-D: 24H,4,7,831,Baleares,BALEARS (ILLES),Marratxí,2021-01-31,1.309,,,1.459,,1.199,,1.279,,,,,,
140,2711,BP,"POLIGONO OLLERS, S/N",MARRATXINET              ,07141,2.725056,39.627528,D,P,dm,L-D: 24H,4,7,831,Baleares,BALEARS (ILLES),Marratxí,2021-01-24,1.309,,,1.459,,1.199,,1.279,,,,,,
141,13162,PETROEST,"CALLE GABRIEL ALZAMORA, 25",PALMA                    ,07008,2.674778,39.589306,D,P,dm,L-D: 24H,4,7,836,Baleares,BALEARS (ILLES),Palma de Mallorca,2021-01-31,1.209,,,,,1.119,,,,,,,,
142,13162,PETROEST,"CALLE GABRIEL ALZAMORA, 25",PALMA                    ,07008,2.674778,39.589306,D,P,dm,L-D: 24H,4,7,836,Baleares,BALEARS (ILLES),Palma de Mallorca,2021-01-30,1.209,,,,,1.119,,,,,,,,
143,2727,CEPSA,"AVENIDA BIENVENIDOS, 36",CALA D'OR                ,07660,3.226833,39.379917,D,P,OM,L-D: 24H,4,7,853,Baleares,BALEARS (ILLES),Santanyí,2021-01-30,1.329,1.39,,1.471,,1.198,,1.258,,,,,,
144,2594,CEPSA,"CARRETERA C-717 PALMA - PORTO PETRO KM. 34,5",CAMPOS                   ,07630,3.004667,39.437611,D,P,dm,L-D: 24H,4,7,807,Baleares,BALEARS (ILLES),Campos,2021-01-24,1.329,,,1.479,,1.193,0.786,1.254,,,,,,
145,2594,CEPSA,"CARRETERA C-717 PALMA - PORTO PETRO KM. 34,5",CAMPOS                   ,07630,3.004667,39.437611,D,P,dm,L-D: 24H,4,7,807,Baleares,BALEARS (ILLES),Campos,2021-01-22,1.329,,,1.469,,1.194,0.792,1.26,,,,,,
146,2672,CEPSA,"CALLE TRAJINERS, SN",POBLA (SA)               ,07420,3.016944,39.771472,I,P,dm,L-S: 06:00-21:00,4,7,838,Baleares,BALEARS (ILLES),Pobla (Sa),2021-01-28,1.329,1.389,,,,1.196,0.787,1.256,,,,,,
147,2692,REPSOL,"AVENIDA JAIME I, 143",INCA                     ,07300,2.915333,39.716639,D,P,dm,L-D: 24H,4,7,822,Baleares,BALEARS (ILLES),Inca,2021-01-16,1.329,,,1.479,,1.225,,1.305,,,,,,
148,2633,CEPSA,CARRETERA AEROPUERTO KM. 5,MAO                      ,07701,4.227833,39.863861,D,P,dm,L-D: 07:00-22:00,4,7,829,Baleares,BALEARS (ILLES),Mahón,2021-01-27,1.329,,,,,1.245,0.8,,,,,,,
149,2590,CEPSA,"CARRETERA ME721 KM. 7,200",ALAIOR                   ,07730,4.186722,39.908333,D,P,dm,L: 07:00-21:00,4,7,794,Baleares,BALEARS (ILLES),Alaior,2021-01-21,1.329,,,,,1.239,,,,,,,,
150,2591,CEPSA,CARRETERA COMARCAL 721 KM. 7200,ALAIOR                   ,07730,4.186722,39.908361,I,P,dm,L-D: 06:00-23:00,4,7,794,Baleares,BALEARS (ILLES),Alaior,2021-01-23,1.329,,,,,1.239,,,,,,,,
151,2669,CEPSA,"CALLE BALMES, 55",ALAIOR                   ,07730,4.136528,39.931667,D,P,dm,L: 07:00-22:00,4,7,794,Baleares,BALEARS (ILLES),Alaior,2021-01-22,1.329,,,,,1.239,,,,,,,,
152,2622,REPSOL,"CARRETERA C-733 KM. 19,700",SANT JOAN DE LABRITJA    ,07810,1.496222,39.070278,I,P,dm,L-S: 07:00-22:00,4,7,845,Baleares,BALEARS (ILLES),Sant Joan de Labritja,2021-01-06,1.329,,,1.469,,1.219,0.929,,,,,,,
153,2590,CEPSA,"CARRETERA ME721 KM. 7,200",ALAIOR                   ,07730,4.186722,39.908333,D,P,dm,L: 07:00-21:00,4,7,794,Baleares,BALEARS (ILLES),Alaior,2021-01-18,1.329,,,,,1.239,,,,,,,,
154,2574,REPSOL,"CARRETERA PM-602 KM. 8,2",LLUCMAJOR                ,07620,2.789389,39.493778,I,P,dm,L-D: 06:00-22:00,4,7,826,Baleares,BALEARS (ILLES),Llucmajor,2021-01-05,1.329,1.369,,1.479,,1.179,,1.249,,,0.609,,,
155,2686,REPSOL,"CR C-715, 21",ALGAIDA                  ,07210,2.895833,39.567306,I,P,dm,L-D: 06:00-22:00,4,7,797,Baleares,BALEARS (ILLES),Algaida,2021-01-13,1.329,,,1.459,,1.189,0.857,1.269,,,,,,
156,2641,SHELL,"CARRETERA DE DEIA,S/N KM. 71,110",VALLDEMOSSA              ,07170,2.60975,39.712778,D,P,dm,L-D: 06:00-00:00,4,7,859,Baleares,BALEARS (ILLES),Valldemossa,2021-01-12,1.329,,,1.469,,1.189,,1.269,,,,,,
157,2578,BP,"CARRETERA MA-15 KM. 29,320",MONTUIRI                 ,07230,2.988139,39.560806,I,P,dm,L-S: 06:00-22:00; D: 08:00-21:00,4,7,834,Baleares,BALEARS (ILLES),Montuïri,2021-01-24,1.329,,,1.469,,1.199,0.786,1.269,,,,,,
158,2586,REPSOL,CARRETERA PM-602 KM. 5,ARENAL (S')              ,07600,2.831722,39.483944,D,P,dm,L-D: 06:00-22:00,4,7,826,Baleares,BALEARS (ILLES),Llucmajor,2021-01-12,1.329,,,1.479,,1.179,,1.269,,,,,,
159,11945,REPSOL,"CARRETERA C-717 KM. 53,7",SANTANYI                 ,07650,3.1475,39.370778,D,P,dm,L-D: 06:00-22:00,4,7,853,Baleares,BALEARS (ILLES),Santanyí,2021-01-30,1.329,,,1.469,,1.209,,1.289,,,,,,
160,2610,REPSOL,"CALLE CAPITAN SALOM, 31",PALMA                    ,07004,2.652889,39.586417,D,P,dm,L-D: 24H,4,7,836,Baleares,BALEARS (ILLES),Palma de Mallorca,2021-01-22,1.329,,,1.469,,1.209,,1.289,,,,,,
161,2652,REPSOL,"CARRETERA MA-12 KM. 11,600",ARTA                     ,07570,3.226556,39.703111,I,P,dm,L-S: 06:00-22:00; D: 06:00-14:00,4,7,800,Baleares,BALEARS (ILLES),Artà,2021-01-19,1.329,,,1.469,,1.209,0.859,1.289,,,,,,
162,2731,REPSOL,"AVENIDA JUAN CARLOS I, 109",PLATJA D'ALCUDIA         ,07408,3.113806,39.821333,I,P,dm,L-S: 08:00-16:00,4,7,796,Baleares,BALEARS (ILLES),Alcúdia,2021-01-22,1.329,,,1.469,,1.209,,1.289,,,,,,
163,2648,BP,"CALLE LLUC  ESQUINA SELVA, INCA, S/N",INCA                     ,07300,2.911306,39.729278,D,P,dm,L-D: 24H,4,7,822,Baleares,BALEARS (ILLES),Inca,2021-01-28,1.329,,,1.479,,1.209,,1.289,,,,,,
164,2652,REPSOL,"CARRETERA MA-12 KM. 11,600",ARTA                     ,07570,3.226556,39.703111,I,P,dm,L-S: 06:00-22:00; D: 06:00-14:00,4,7,800,Baleares,BALEARS (ILLES),Artà,2021-01-29,1.329,,,1.469,,1.209,0.859,1.289,,,,,,
165,2640,REPSOL,"AVENIDA GENERAL LUQUE, S/N",INCA                     ,07300,2.901972,39.711556,D,P,dm,L-D: 24H,4,7,822,Baleares,BALEARS (ILLES),Inca,2021-01-29,1.329,,,1.489,,1.199,,1.289,,,,,,
166,2707,REPSOL,CARRETERA C-717 KM. 38,SANTANYI                 ,07650,3.024111,39.426417,I,P,dm,L-D: 06:00-22:30,4,7,853,Baleares,BALEARS (ILLES),Santanyí,2021-01-09,1.329,1.369,,1.479,,1.199,0.889,1.289,,,,,,
167,2639,BP,CARRETERA MURO KM. 0,POBLA (SA)               ,07420,3.029667,39.765472,I,P,dm,L-S: 06:00-21:00,4,7,838,Baleares,BALEARS (ILLES),Pobla (Sa),2021-01-31,1.329,,,1.449,,1.209,0.799,1.289,,,,,,
168,2639,BP,CARRETERA MURO KM. 0,POBLA (SA)               ,07420,3.029667,39.765472,I,P,dm,L-S: 06:00-21:00,4,7,838,Baleares,BALEARS (ILLES),Pobla (Sa),2021-01-28,1.329,,,1.449,,1.209,0.799,1.289,,,,,,
169,2698,BP PUERTO POLLENSA,"CALLE JUAN XXIII, 133",POLLENÇA                 ,07460,3.077333,39.904694,I,P,dm,L-D: 05:00-23:00,4,7,839,Baleares,BALEARS (ILLES),Pollença,2021-01-25,1.329,,,1.471,,1.219,,1.309,,,,,,
170,2570,REPSOL,"CARRETERA PM-808 KM. 1,25",EIVISSA                  ,07800,1.417972,38.905583,I,P,dm,L-D: 24H,4,7,814,Baleares,BALEARS (ILLES),Eivissa,2021-01-06,1.329,,,1.479,,1.219,,1.309,,,0.629,,,
171,2666,BP,CARRETERA CTRA DE MAO A CIUTADELLA ME-1 KM. 23,MERCADAL (ES)            ,07740,4.071667,39.984639,N,P,dm,L-S: 07:00-21:00; D: 08:00-21:00,4,7,832,Baleares,BALEARS (ILLES),Mercadal (Es),2021-01-28,1.329,,,,,1.229,0.889,1.329,,,,,,
172,2588,CEPSA ,"CARRER ALCALDE BARTOLOME ROSELLO SALA, 2",EIVISSA                  ,07800,1.437167,38.918833,D,P,dm,L-D: 24H,4,7,814,Baleares,BALEARS (ILLES),Eivissa,2021-01-08,1.329,,,1.499,,1.229,,1.329,,,,,,
173,2666,BP,CARRETERA CTRA DE MAO A CIUTADELLA ME-1 KM. 23,MERCADAL (ES)            ,07740,4.071667,39.984639,N,P,dm,L-S: 07:00-21:00; D: 08:00-21:00,4,7,832,Baleares,BALEARS (ILLES),Mercadal (Es),2021-01-17,1.329,,,,,1.229,0.889,1.329,,,,,,
174,2703,CEPSA,"CARRETERA C-713 KM. 51,1",ALCUDIA                  ,07400,3.099,39.847,I,P,dm,L-V: 07:00-20:00; S-D: 07:00-17:00,4,7,796,Baleares,BALEARS (ILLES),Alcúdia,2021-01-16,1.329,1.389,,,,1.229,,1.299,,,,,,
175,2673,BP,"CARRERA PM-503 KM. 5,5, ",PORRERES                 ,07260,3.019583,39.520056,N,P,dm,L-V: 06:00-22:00; S: 06:00-21:00; D: 07:00-22:00,4,7,840,Baleares,BALEARS (ILLES),Porreres,2021-01-29,1.329,,,1.469,,1.209,0.869,1.299,,,,,,
176,2703,CEPSA,"CARRETERA C-713 KM. 51,1",ALCUDIA                  ,07400,3.099,39.847,I,P,dm,L-V: 07:00-20:00; S-D: 07:00-17:00,4,7,796,Baleares,BALEARS (ILLES),Alcúdia,2021-01-17,1.329,1.389,,,,1.229,,1.299,,,,,,
177,2650,REPSOL,"CL CECILIO METELO-ESQ.PUIG MARI, S.",POLLENÇA                 ,07460,3.016083,39.873722,D,P,dm,L-D: 06:00-22:00,4,7,839,Baleares,BALEARS (ILLES),Pollença,2021-01-22,1.329,,,1.489,,1.219,,1.319,,,,,,
178,2679,CEPSA,"AVENIDA FRANCESC DE BORJA MOLL, 61",SALINES (SES)            ,07640,3.046389,39.341333,I,P,dm,L-S: 08:00-20:00,4,7,842,Baleares,BALEARS (ILLES),Salines (Ses),2021-01-27,1.329,1.389,,,,1.189,,1.259,,,,,,
179,2710,REPSOL,"CARRETERA CAMPOS KM. 11,1",FELANITX                 ,07200,3.138222,39.465639,D,P,dm,L-V: 06:00-22:00; S: 06:30-22:00; D: 07:00-22:00,4,7,818,Baleares,BALEARS (ILLES),Felanitx,2021-01-28,1.329,,,1.469,,1.199,0.859,1.259,,,,,,
180,11617,REPSOL,CARRETERA CR C-713  PALMA-PUERTO ALCUDIA KM. 13,MARRATXINET              ,07141,2.756889,39.647944,D,P,dm,L-D: 06:00-22:00,4,7,831,Baleares,BALEARS (ILLES),Marratxí,2021-01-22,1.329,,,1.469,,1.199,0.869,1.279,,,,,,
181,2690,REPSOL,"CALLE CIUTAT, SN",ARTA                     ,07570,3.346972,39.68975,D,P,dm,L-D: 06:00-22:00,4,7,800,Baleares,BALEARS (ILLES),Artà,2021-01-25,1.329,,,1.479,,1.199,,1.279,,,,,,
182,2740,REPSOL,"CAMI CAMI DE SON RAPINYA ESQ.CAMI DEL REIS, S/N",PALMA                    ,07013,2.618722,39.584944,D,P,dm,L-D: 24H,4,7,836,Baleares,BALEARS (ILLES),Palma de Mallorca,2021-01-15,1.329,,,1.459,,1.199,,1.279,,,0.675,,,
183,2723,REPSOL,"CARRETERA MA-15 KM. 36,6",SANT JOAN                ,07240,3.067806,39.569833,D,P,dm,L-D: 06:00-22:00,4,7,844,Baleares,BALEARS (ILLES),Sant Joan,2021-01-16,1.329,,,1.459,,1.199,0.859,1.279,,,,,,
184,2663,REPSOL,"AE VIAL SALIDA AEROPUERTO, S.N.",PALMA,07611,2.722944,39.545917,D,P,dm,L-D: 24H,4,7,836,Baleares,BALEARS (ILLES),Palma de Mallorca,2021-01-22,1.329,,,1.489,,1.189,0.958,1.279,,,0.649,,,
185,2567,REPSOL,"CARRETERA CARRET.PORTO CRISTO-SON SERVERA,KM.5,200 KM. 5,200",SANT LLORENÇ DES CARDASSAR,07530,3.361611,39.5805,I,P,OM,L-D: 07:00-21:00,4,7,847,Baleares,BALEARS (ILLES),Sant Llorenç des Cardassar,2021-01-21,1.329,,,1.459,,1.189,,1.279,,,,,,
186,14218,AUTONETOIL,"CALLE POIMA, 12",PALMA                    ,07011,2.632778,39.595056,D,P,dm,L-D: 24H,4,7,836,Baleares,BALEARS (ILLES),Palma de Mallorca,2021-01-23,1.179,,,,,1.089,,1.119,,,,,,
187,2602,CEPSA,"CARRETERA VELLA DE SINEU PMV3011 KM. 15,5",SANTA EUGENIA            ,07142,2.834306,39.612667,I,P,dm,L-S: 06:30-20:30,4,7,849,Baleares,BALEARS (ILLES),Santa Eugènia,2021-01-30,1.299,1.359,,,,1.189,0.787,1.258,,,,,,
188,2710,REPSOL,"CARRETERA CAMPOS KM. 11,1",FELANITX                 ,07200,3.138222,39.465639,D,P,dm,L-V: 06:00-22:00; S: 06:30-22:00; D: 07:00-22:00,4,7,818,Baleares,BALEARS (ILLES),Felanitx,2021-01-03,1.299,,,1.439,,1.157,0.839,1.217,,,,,,
189,2582,CEPSA,"CARRETERA PM-V-211-1 KM. 1,5",LLOSETA                  ,07360,2.865222,39.707667,D,P,OM,L-D: 06:00-22:00,4,7,824,Baleares,BALEARS (ILLES),Lloseta,2021-01-24,1.299,1.359,,,,1.189,,1.254,,,,,,
190,14342,SHELL,"CARRER SABATERS, SN",LLOSETA                  ,07360,2.870417,39.7035,D,P,dm,L-D: 24H,4,7,824,Baleares,BALEARS (ILLES),Lloseta,2021-01-16,1.299,,,1.435,,1.185,,1.265,,,,,,
191,13041,GALP,"CALLE FERRERS, 1",CIUTADELLA DE MENORCA    ,07760,3.853444,40.005611,D,P,dm,L-D: 24H,4,7,810,Baleares,BALEARS (ILLES),Ciutadella de Menorca,2021-01-17,1.299,,,,,1.199,,,,,,,,
192,13041,GALP,"CALLE FERRERS, 1",CIUTADELLA DE MENORCA    ,07760,3.853444,40.005611,D,P,dm,L-D: 24H,4,7,810,Baleares,BALEARS (ILLES),Ciutadella de Menorca,2021-01-31,1.299,,,,,1.199,,,,,,,,
193,13041,GALP,"CALLE FERRERS, 1",CIUTADELLA DE MENORCA    ,07760,3.853444,40.005611,D,P,dm,L-D: 24H,4,7,810,Baleares,BALEARS (ILLES),Ciutadella de Menorca,2021-01-26,1.299,,,,,1.199,,,,,,,,
194,2567,REPSOL,"CARRETERA CARRET.PORTO CRISTO-SON SERVERA,KM.5,200 KM. 5,200",SANT LLORENÇ DES CARDASSAR,07530,3.361611,39.5805,I,P,OM,L-D: 07:00-21:00,4,7,847,Baleares,BALEARS (ILLES),Sant Llorenç des Cardassar,2021-01-04,1.299,,,1.439,,1.159,,1.229,,,,,,
195,2684,CEPSA,"CARRETERA C-715 KM. 42,5",PETRA                    ,07520,3.133833,39.576111,I,P,dm,L-V: 06:00-21:00; S: 07:00-20:00; D: 10:00-20:00,4,7,837,Baleares,BALEARS (ILLES),Petra,2021-01-12,1.299,1.359,,,,1.179,,1.249,,,,,,
196,2584,REPSOL,"CALLE GREMI SUCRERS Y CANDELERS, 5",PALMA                    ,07009,2.656056,39.606667,D,P,dm,L-S: 06:00-22:00; D: 06:00-14:00,4,7,836,Baleares,BALEARS (ILLES),Palma de Mallorca,2021-01-06,1.299,,,1.429,,1.169,,1.249,,,0.655,,,
197,2615,REPSOL,"CALLE CORONEL BEORLEGUI, 49",PALMA                    ,07010,2.634639,39.605028,D,P,dm,L-D: 06:00-22:00,4,7,836,Baleares,BALEARS (ILLES),Palma de Mallorca,2021-01-06,1.299,,,1.429,,1.169,,1.249,,,,,,
198,2597,BP,"AVENIDA AMERICA, ARENAL, 18",PALMA                    ,07006,2.753389,39.511639,D,P,dm,L-D: 24H,4,7,836,Baleares,BALEARS (ILLES),Palma de Mallorca,2021-01-09,1.299,,,1.439,,1.179,,1.249,,,,,,
199,2673,BP,"CARRERA PM-503 KM. 5,5, ",PORRERES                 ,07260,3.019583,39.520056,N,P,dm,L-V: 06:00-22:00; S: 06:00-21:00; D: 07:00-22:00,4,7,840,Baleares,BALEARS (ILLES),Porreres,2021-01-02,1.299,,,1.439,,1.159,0.839,1.249,,,,,,
200,2702,REPSOL,"CALLE MANACOR, 336",SON SANT JOAN            ,07198,2.721056,39.571194,D,P,dm,L: 06:00-22:00,4,7,836,Baleares,BALEARS (ILLES),Palma de Mallorca,2021-01-09,1.299,,,1.429,,1.179,0.849,1.249,,,,,,
201,2575,CEPSA,"CALLE ES CARRERO, 0",SON MORO                 ,07560,3.382056,39.59625,D,P,dm,L-D: 06:00-23:00,4,7,847,Baleares,BALEARS (ILLES),Sant Llorenç des Cardassar,2021-01-15,1.299,1.359,,,,1.179,,1.249,,,,,,
202,2677,BP PLAYA DE PALMA,"CALLE MANUELA DE LOS HERREROS, 15",CAN PASTILLA             ,07610,2.72725,39.532722,N,P,dm,L-D: 06:00-22:00,4,7,836,Baleares,BALEARS (ILLES),Palma de Mallorca,2021-01-04,1.299,,,1.439,,1.159,,1.249,,,,,,
203,2738,BP,"CARRETERA 10, CAMINO DE CAN CAPO, SŽARANJASSA KM. 717",ARANJASSA (S')           ,07199,2.736056,39.535306,D,P,dm,L-D: 24H,4,7,836,Baleares,BALEARS (ILLES),Palma de Mallorca,2021-01-15,1.299,,,1.449,,1.189,,1.269,,,,,,
204,2716,BP,CARRETERA PM 402 KM. 9,PORTO CRISTO             ,07680,3.263111,39.561,I,P,dm,L-D: 06:00-22:00,4,7,827,Baleares,BALEARS (ILLES),Manacor,2021-01-23,1.299,,,1.449,,1.179,,1.269,,,,,,
205,11617,REPSOL,CARRETERA CR C-713  PALMA-PUERTO ALCUDIA KM. 13,MARRATXINET              ,07141,2.756889,39.647944,D,P,dm,L-D: 06:00-22:00,4,7,831,Baleares,BALEARS (ILLES),Marratxí,2021-01-18,1.299,,,1.459,,1.189,0.869,1.269,,,,,,
206,13602,CARREFOUR,"AVENIDA CARDENAL ROSELL,, S/N",PALMA                    ,07007,2.704222,39.552167,N,P,dm,L-S: 08:00-22:00; D: 09:00-21:00,4,7,836,Baleares,BALEARS (ILLES),Palma de Mallorca,2021-01-27,1.299,,,1.449,,1.169,,1.199,,,,,,
207,2702,REPSOL,"CALLE MANACOR, 336",SON SANT JOAN            ,07198,2.721056,39.571194,D,P,dm,L: 06:00-22:00,4,7,836,Baleares,BALEARS (ILLES),Palma de Mallorca,2021-01-08,1.299,,,1.429,,1.169,0.849,1.239,,,,,,
208,2736,REPSOL,"CAMINO REIS, S/N",PALMA                    ,07011,2.637917,39.595861,I,P,dm,L-S: 06:00-23:59; D: 06:00-22:00,4,7,836,Baleares,BALEARS (ILLES),Palma de Mallorca,2021-01-09,1.299,,,1.449,,1.179,,1.239,,,,,,
209,12410,REPSOL,"CAMINO SON FANGOS, 151",PLATJA DE PALMA          ,07610,2.735,39.535472,D,P,dm,L-D: 24H,4,7,836,Baleares,BALEARS (ILLES),Palma de Mallorca,2021-01-14,1.299,,,1.439,,1.179,,1.239,,,0.649,,,
210,2690,REPSOL,"CALLE CIUTAT, SN",ARTA                     ,07570,3.346972,39.68975,D,P,dm,L-D: 06:00-22:00,4,7,800,Baleares,BALEARS (ILLES),Artà,2021-01-03,1.299,,,1.423,,1.169,,1.239,,,,,,
211,12410,REPSOL,"CAMINO SON FANGOS, 151",PLATJA DE PALMA          ,07610,2.735,39.535472,D,P,dm,L-D: 24H,4,7,836,Baleares,BALEARS (ILLES),Palma de Mallorca,2021-01-10,1.299,,,1.439,,1.179,,1.239,,,0.649,,,
212,11560,REPSOL,"CARRETERA PM-111 KM. 8,6",VALLDEMOSSA              ,07170,2.648028,39.643333,D,P,OM,L-D: 06:00-22:00,4,7,859,Baleares,BALEARS (ILLES),Valldemossa,2021-01-03,1.299,,,1.439,,1.159,0.925,1.239,,,,,,
213,2735,REPSOL,"CALLE CAMI SALARD, S/N",PALMA                    ,07010,2.685139,39.576167,D,P,dm,L-D: 06:00-22:00,4,7,836,Baleares,BALEARS (ILLES),Palma de Mallorca,2021-01-08,1.299,,,1.429,,1.179,,1.259,,,0.675,,,
214,2654,REPSOL,"CALLE LLUCMAJOR, 148",PALMA                    ,07007,2.682333,39.557861,D,P,dm,L-V: 06:00-22:00; S-D: 07:00-22:00,4,7,836,Baleares,BALEARS (ILLES),Palma de Mallorca,2021-01-12,1.299,,,1.449,,1.179,,1.259,,,,,,
215,2665,CEPSA,"PM-719 km 12,4",PALMANOVA                ,07181,2.541556,39.528083,I,P,dm,L-D: 06:00-22:00,4,7,805,Baleares,BALEARS (ILLES),Calvià,2021-01-24,1.299,1.374,,,,1.194,,1.279,,,,,,
216,2716,BP,CARRETERA PM 402 KM. 9,PORTO CRISTO             ,07680,3.263111,39.561,I,P,dm,L-D: 06:00-22:00,4,7,827,Baleares,BALEARS (ILLES),Manacor,2021-01-31,1.299,,,1.449,,1.189,,1.279,,,,,,
217,13184,PETROEST,"CALLE GREMI CIRUGIANS I BARBERS, 11",PALMA                    ,07009,2.65825,39.600639,D,P,dm,L-D: 24H,4,7,836,Baleares,BALEARS (ILLES),Palma de Mallorca,2021-01-24,1.199,,,,,1.109,,,,,,,,
218,13150,AUTONETOIL,"CARRER ARTRUXT, 7",MAO                      ,07714,4.246694,39.884917,D,P,dm,L-D: 24H,4,7,829,Baleares,BALEARS (ILLES),Mahón,2021-01-24,1.199,,,,,1.079,,1.109,,,,,,
219,2664,CEPSA,"PLAZA HOSTALS, 4",SANTA MARIA DEL CAMI     ,07320,2.773861,39.651694,D,P,dm,L-S: 06:30-20:30,4,7,852,Baleares,BALEARS (ILLES),Santa María del Camí,2021-01-31,1.319,,,,,1.199,,,,,,,,
220,2569,REPSOL,"CALLE PINTOR TORRENT, 10",CIUTADELLA DE MENORCA    ,07760,3.833056,40.007833,D,P,dm,L-D: 06:00-22:00,4,7,810,Baleares,BALEARS (ILLES),Ciutadella de Menorca,2021-01-26,1.319,,,,,1.219,,,,,0.649,,,
221,2719,REPSOL,"CTRA. MA-11, 30",SOLLER                   ,07100,2.708389,39.765778,D,P,dm,L-S: 06:00-22:00; D: 07:00-21:00,4,7,857,Baleares,BALEARS (ILLES),Sóller,2021-01-29,1.319,,,1.469,,1.199,,,,,,,,
222,2645,GALP,"CARRETERA MAHÓN - FORNELLS KM. 12,6",MERCADAL (ES)            ,07740,4.195611,39.977556,D,P,dm,L-D: 24H,4,7,832,Baleares,BALEARS (ILLES),Mercadal (Es),2021-01-07,1.319,,,,,1.229,,,,,,,,
223,2669,CEPSA,"CALLE BALMES, 55",ALAIOR                   ,07730,4.136528,39.931667,D,P,dm,L: 07:00-22:00,4,7,794,Baleares,BALEARS (ILLES),Alaior,2021-01-13,1.319,,,,,1.219,,,,,,,,
224,2664,CEPSA,"PLAZA HOSTALS, 4",SANTA MARIA DEL CAMI     ,07320,2.773861,39.651694,D,P,dm,L-S: 06:30-20:30,4,7,852,Baleares,BALEARS (ILLES),Santa María del Camí,2021-01-24,1.319,,,,,1.199,,,,,,,,
225,2645,GALP,"CARRETERA MAHÓN - FORNELLS KM. 12,6",MERCADAL (ES)            ,07740,4.195611,39.977556,D,P,dm,L-D: 24H,4,7,832,Baleares,BALEARS (ILLES),Mercadal (Es),2021-01-04,1.319,,,,,1.229,,,,,,,,
226,2625,REPSOL,"CARRETERA PM - 213 KM. 14,8",ESCORCA                  ,07315,2.89,39.812444,D,P,dm,L-D: 24H,4,7,815,Baleares,BALEARS (ILLES),Escorca,2021-01-28,1.319,,,1.469,,1.209,,,,,,,,
227,2710,REPSOL,"CARRETERA CAMPOS KM. 11,1",FELANITX                 ,07200,3.138222,39.465639,D,P,dm,L-V: 06:00-22:00; S: 06:30-22:00; D: 07:00-22:00,4,7,818,Baleares,BALEARS (ILLES),Felanitx,2021-01-15,1.319,,,1.459,,1.189,0.849,1.249,,,,,,
228,2654,REPSOL,"CALLE LLUCMAJOR, 148",PALMA                    ,07007,2.682333,39.557861,D,P,dm,L-V: 06:00-22:00; S-D: 07:00-22:00,4,7,836,Baleares,BALEARS (ILLES),Palma de Mallorca,2021-01-28,1.319,,,1.469,,1.189,,1.269,,,,,,
229,2680,CEPSA,"CARRER CONVENT, 29",SANTANYI                 ,07650,3.166778,39.383944,I,P,dm,L-S: 07:00-21:00,4,7,853,Baleares,BALEARS (ILLES),Santanyí,2021-01-03,1.319,1.389,,,,1.189,0.829,1.269,,,,,,
230,2704,BP,"AVENIDA JOAN MIRO, 238",PALMA                    ,07015,2.613889,39.552444,D,P,dm,L-D: 24H,4,7,836,Baleares,BALEARS (ILLES),Palma de Mallorca,2021-01-26,1.319,,,1.459,,1.199,,1.269,,,,,,
231,2690,REPSOL,"CALLE CIUTAT, SN",ARTA                     ,07570,3.346972,39.68975,D,P,dm,L-D: 06:00-22:00,4,7,800,Baleares,BALEARS (ILLES),Artà,2021-01-19,1.319,,,1.469,,1.189,,1.269,,,,,,
232,2635,BP,"CARRETERA CALA FIGUERA, EL TORO, SON FERRER KM. S/N",CALVIA                   ,07184,2.518333,39.500139,I,P,dm,L-D: 24H,4,7,805,Baleares,BALEARS (ILLES),Calvià,2021-01-16,1.319,,,1.459,,1.199,,1.269,,,,,,
233,11945,REPSOL,"CARRETERA C-717 KM. 53,7",SANTANYI                 ,07650,3.1475,39.370778,D,P,dm,L-D: 06:00-22:00,4,7,853,Baleares,BALEARS (ILLES),Santanyí,2021-01-11,1.319,,,1.449,,1.189,,1.269,,,,,,
234,2736,REPSOL,"CAMINO REIS, S/N",PALMA                    ,07011,2.637917,39.595861,I,P,dm,L-S: 06:00-23:59; D: 06:00-22:00,4,7,836,Baleares,BALEARS (ILLES),Palma de Mallorca,2021-01-28,1.319,,,1.469,,1.189,,1.269,,,,,,
235,2731,REPSOL,"AVENIDA JUAN CARLOS I, 109",PLATJA D'ALCUDIA         ,07408,3.113806,39.821333,I,P,dm,L-S: 08:00-16:00,4,7,796,Baleares,BALEARS (ILLES),Alcúdia,2021-01-11,1.319,,,1.449,,1.189,,1.269,,,,,,
236,2702,REPSOL,"CALLE MANACOR, 336",SON SANT JOAN            ,07198,2.721056,39.571194,D,P,dm,L: 06:00-22:00,4,7,836,Baleares,BALEARS (ILLES),Palma de Mallorca,2021-01-24,1.319,,,1.449,,1.199,0.859,1.269,,,,,,
237,2678,REPSOL,"RONDA RONDA DEL OESTE, 123",PORTO CRISTO             ,07680,3.339444,39.547667,I,P,dm,L-D: 06:00-22:00,4,7,827,Baleares,BALEARS (ILLES),Manacor,2021-01-14,1.319,,,1.449,,1.189,0.849,1.269,,,,,,
238,2702,REPSOL,"CALLE MANACOR, 336",SON SANT JOAN            ,07198,2.721056,39.571194,D,P,dm,L: 06:00-22:00,4,7,836,Baleares,BALEARS (ILLES),Palma de Mallorca,2021-01-15,1.319,,,1.449,,1.199,0.859,1.269,,,,,,
239,2619,REPSOL,"CALLE EUSEBIO ESTADA, 64",PALMA                    ,07004,2.660667,39.582056,D,P,dm,L-S: 06:00-22:00; D: 06:00-14:00,4,7,836,Baleares,BALEARS (ILLES),Palma de Mallorca,2021-01-14,1.319,,,1.449,,1.189,,1.269,,,,,,
240,2635,BP,"CARRETERA CALA FIGUERA, EL TORO, SON FERRER KM. S/N",CALVIA                   ,07184,2.518333,39.500139,I,P,dm,L-D: 24H,4,7,805,Baleares,BALEARS (ILLES),Calvià,2021-01-19,1.319,,,1.459,,1.199,,1.269,,,,,,
241,2653,BP,"CARRETERA PALMA-PTO ANDRATX KM. 28,90",ANDRATX                  ,07150,2.423611,39.568,I,P,dm,L-D: 24H,4,7,798,Baleares,BALEARS (ILLES),Andratx,2021-01-19,1.319,,,1.459,,1.199,,1.269,,,,,,
242,2686,REPSOL,"CR C-715, 21",ALGAIDA                  ,07210,2.895833,39.567306,I,P,dm,L-D: 06:00-22:00,4,7,797,Baleares,BALEARS (ILLES),Algaida,2021-01-30,1.319,,,1.459,,1.199,0.87,1.289,,,,,,
243,14906,REPSOL,"CALLE VIA MAJORICA, SN",MANACOR                  ,07500,3.194417,39.572111,D,P,OM,L-D: 06:00-22:00,4,7,827,Baleares,BALEARS (ILLES),Manacor,2021-01-15,1.319,,,1.469,,1.199,,1.289,,,0.639,,,
244,2732,BP LLUCMAJOR,"CALLE LLUCMAJOR, 109",PALMA                    ,07007,2.678639,39.559083,I,P,dm,L-D: 24H,4,7,836,Baleares,BALEARS (ILLES),Palma de Mallorca,2021-01-28,1.319,,,1.461,,1.199,,1.289,,,,,,
245,2640,REPSOL,"AVENIDA GENERAL LUQUE, S/N",INCA                     ,07300,2.901972,39.711556,D,P,dm,L-D: 24H,4,7,822,Baleares,BALEARS (ILLES),Inca,2021-01-23,1.319,,,1.479,,1.199,,1.289,,,,,,
246,2640,REPSOL,"AVENIDA GENERAL LUQUE, S/N",INCA                     ,07300,2.901972,39.711556,D,P,dm,L-D: 24H,4,7,822,Baleares,BALEARS (ILLES),Inca,2021-01-24,1.319,,,1.479,,1.199,,1.289,,,,,,
247,2731,REPSOL,"AVENIDA JUAN CARLOS I, 109",PLATJA D'ALCUDIA         ,07408,3.113806,39.821333,I,P,dm,L-S: 08:00-16:00,4,7,796,Baleares,BALEARS (ILLES),Alcúdia,2021-01-26,1.319,,,1.469,,1.209,,1.289,,,,,,
248,14906,REPSOL,"CALLE VIA MAJORICA, SN",MANACOR                  ,07500,3.194417,39.572111,D,P,OM,L-D: 06:00-22:00,4,7,827,Baleares,BALEARS (ILLES),Manacor,2021-01-18,1.319,,,1.469,,1.199,,1.289,,,0.639,,,
249,2580, BP SAN LUIS,"AVENIDA DE SA PAU, 6",SANT LLUIS               ,07710,4.259056,39.852722,N,P,dm,L-D: 24H,4,7,848,Baleares,BALEARS (ILLES),Sant Lluís,2021-01-13,1.319,,,,,1.229,,1.329,,,,,,
250,2593,LAS GAVIOTAS,"CALLE CRUCERO, 12",PLATJA DE MURO           ,07408,3.109972,39.81425,D,P,dm,L-D: 08:00-16:00,4,7,835,Baleares,BALEARS (ILLES),Muro,2021-01-12,1.319,,,1.479,,1.229,,1.329,,,,,,
251,2650,REPSOL,"CL CECILIO METELO-ESQ.PUIG MARI, S.",POLLENÇA                 ,07460,3.016083,39.873722,D,P,dm,L-D: 06:00-22:00,4,7,839,Baleares,BALEARS (ILLES),Pollença,2021-01-20,1.319,,,1.469,,1.209,,1.299,,,,,,
252,2578,BP,"CARRETERA MA-15 KM. 29,320",MONTUIRI                 ,07230,2.988139,39.560806,I,P,dm,L-S: 06:00-22:00; D: 08:00-21:00,4,7,834,Baleares,BALEARS (ILLES),Montuïri,2021-01-14,1.319,,,1.459,,1.189,0.793,1.259,,,,,,
253,2684,CEPSA,"CARRETERA C-715 KM. 42,5",PETRA                    ,07520,3.133833,39.576111,I,P,dm,L-V: 06:00-21:00; S: 07:00-20:00; D: 10:00-20:00,4,7,837,Baleares,BALEARS (ILLES),Petra,2021-01-26,1.319,1.379,,,,1.189,,1.259,,,,,,
254,2690,REPSOL,"CALLE CIUTAT, SN",ARTA                     ,07570,3.346972,39.68975,D,P,dm,L-D: 06:00-22:00,4,7,800,Baleares,BALEARS (ILLES),Artà,2021-01-17,1.319,,,1.449,,1.189,,1.259,,,,,,
255,11560,REPSOL,"CARRETERA PM-111 KM. 8,6",VALLDEMOSSA              ,07170,2.648028,39.643333,D,P,OM,L-D: 06:00-22:00,4,7,859,Baleares,BALEARS (ILLES),Valldemossa,2021-01-09,1.319,,,1.469,,1.189,0.935,1.259,,,,,,
256,2684,CEPSA,"CARRETERA C-715 KM. 42,5",PETRA                    ,07520,3.133833,39.576111,I,P,dm,L-V: 06:00-21:00; S: 07:00-20:00; D: 10:00-20:00,4,7,837,Baleares,BALEARS (ILLES),Petra,2021-01-16,1.319,1.379,,,,1.189,,1.259,,,,,,
257,2594,CEPSA,"CARRETERA C-717 PALMA - PORTO PETRO KM. 34,5",CAMPOS                   ,07630,3.004667,39.437611,D,P,dm,L-D: 24H,4,7,807,Baleares,BALEARS (ILLES),Campos,2021-01-16,1.319,,,1.469,,1.189,0.793,1.259,,,,,,
258,2600,CEPSA,"CARRETERA CABO BLANCO KM. 3,6",LLUCMAJOR                ,07620,2.745556,39.477778,I,P,dm,L-D: 06:00-22:00,4,7,826,Baleares,BALEARS (ILLES),Llucmajor,2021-01-13,1.319,,,1.459,,1.185,,1.259,,,,,,
259,2678,REPSOL,"RONDA RONDA DEL OESTE, 123",PORTO CRISTO             ,07680,3.339444,39.547667,I,P,dm,L-D: 06:00-22:00,4,7,827,Baleares,BALEARS (ILLES),Manacor,2021-01-21,1.319,,,1.459,,1.199,0.859,1.279,,,,,,
260,2736,REPSOL,"CAMINO REIS, S/N",PALMA                    ,07011,2.637917,39.595861,I,P,dm,L-S: 06:00-23:59; D: 06:00-22:00,4,7,836,Baleares,BALEARS (ILLES),Palma de Mallorca,2021-01-17,1.319,,,1.469,,1.199,,1.279,,,,,,
261,2411, BP CA SESTRELLA," CARRETERA ARTA-PTO.ALCUDIA,99, ",CA'N PICAFORT            ,07458,3.152361,39.762,N,P,dm,L-S: 06:30-21:00,4,7,851,Baleares,BALEARS (ILLES),Santa Margalida,2021-01-27,1.319,,,1.456,,1.208,,1.279,,,,,,
262,2634,REPSOL,"VÍA VIA PALMA, 87 (ROTONDA HOSPITAL), 87",MANACOR                  ,07500,3.210528,39.577833,I,P,dm,L-D: 24H,4,7,827,Baleares,BALEARS (ILLES),Manacor,2021-01-18,1.319,,,1.459,,1.199,0.859,1.279,,,,,,
263,2611,BP ES FORTI,"CALLE PASCUAL RIBOT, S/N",PALMA                    ,07013,2.636444,39.579306,N,P,dm,L-D: 06:00-22:00,4,7,836,Baleares,BALEARS (ILLES),Palma de Mallorca,2021-01-23,1.319,,,1.459,,1.199,,1.279,,,,,,
264,2410,REPSOL,"CALLE CAMI VELL DE NUBYOLA, S/N",PALMA                    ,07009,2.674917,39.602361,D,P,dm,L-D: 06:00-22:00,4,7,836,Baleares,BALEARS (ILLES),Palma de Mallorca,2021-01-29,1.319,,,1.459,,1.199,,1.279,,,,,,
265,2735,REPSOL,"CALLE CAMI SALARD, S/N",PALMA                    ,07010,2.685139,39.576167,D,P,dm,L-D: 06:00-22:00,4,7,836,Baleares,BALEARS (ILLES),Palma de Mallorca,2021-01-18,1.319,,,1.459,,1.199,,1.279,,,0.675,,,
266,2410,REPSOL,"CALLE CAMI VELL DE NUBYOLA, S/N",PALMA                    ,07009,2.674917,39.602361,D,P,dm,L-D: 06:00-22:00,4,7,836,Baleares,BALEARS (ILLES),Palma de Mallorca,2021-01-18,1.319,,,1.459,,1.199,,1.279,,,,,,
267,11995,REPSOL,"CALLE MANACOR, 309",CASA BLANCA (SA)         ,07198,2.714194,39.572528,I,P,dm,L-D: 24H,4,7,836,Baleares,BALEARS (ILLES),Palma de Mallorca,2021-01-22,1.319,,,1.459,,1.199,,1.279,,,,,,
268,2740,REPSOL,"CAMI CAMI DE SON RAPINYA ESQ.CAMI DEL REIS, S/N",PALMA                    ,07013,2.618722,39.584944,D,P,dm,L-D: 24H,4,7,836,Baleares,BALEARS (ILLES),Palma de Mallorca,2021-01-18,1.319,,,1.459,,1.199,,1.279,,,0.675,,,
269,2411, BP CA SESTRELLA," CARRETERA ARTA-PTO.ALCUDIA,99, ",CA'N PICAFORT            ,07458,3.152361,39.762,N,P,dm,L-S: 06:30-21:00,4,7,851,Baleares,BALEARS (ILLES),Santa Margalida,2021-01-24,1.319,,,1.456,,1.208,,1.279,,,,,,
270,2723,REPSOL,"CARRETERA MA-15 KM. 36,6",SANT JOAN                ,07240,3.067806,39.569833,D,P,dm,L-D: 06:00-22:00,4,7,844,Baleares,BALEARS (ILLES),Sant Joan,2021-01-30,1.319,,,1.459,,1.199,0.859,1.279,,,,,,
271,2624,REPSOL,"CALLE GABRIEL ROCA, 129",COLONIA DE SANT JORDI    ,07638,3.000056,39.320111,D,P,dm,L-D: 06:00-22:00,4,7,842,Baleares,BALEARS (ILLES),Salines (Ses),2021-01-12,1.319,,,1.469,,1.199,,1.279,,,,,,
272,2411, BP CA SESTRELLA," CARRETERA ARTA-PTO.ALCUDIA,99, ",CA'N PICAFORT            ,07458,3.152361,39.762,N,P,dm,L-S: 06:30-21:00,4,7,851,Baleares,BALEARS (ILLES),Santa Margalida,2021-01-23,1.319,,,1.456,,1.208,,1.279,,,,,,
273,13465,GMOIL,"CALLE BAJOLI ( POLIGONO INDUSTRIAL ARTRUIX ), 39",MAO                      ,07714,4.240472,39.883917,D,P,dm,L-D: 24H,4,7,829,Baleares,BALEARS (ILLES),Mahón,2021-01-03,1.099,,,,,1.009,,,,,,,,
274,14388,EROSKI,"CALLE JOAN PIZA I MASSANET, 5",POBLA (SA)               ,07420,3.023944,39.775028,N,P,dm,L-D: 24H,4,7,838,Baleares,BALEARS (ILLES),Pobla (Sa),2021-01-06,1.219,,,,,1.114,,,,,,,,
275,13538,EROSKI,"CARRETERA MA-13 A, ESQUINA CAMI AGUA KM. S/N",BINISSALEM               ,07350,2.851556,39.686806,N,P,dm,L-D: 24H,4,7,802,Baleares,BALEARS (ILLES),Binissalem,2021-01-13,1.219,,,,,1.109,,,,,,,,
276,13538,EROSKI,"CARRETERA MA-13 A, ESQUINA CAMI AGUA KM. S/N",BINISSALEM               ,07350,2.851556,39.686806,N,P,dm,L-D: 24H,4,7,802,Baleares,BALEARS (ILLES),Binissalem,2021-01-04,1.219,,,,,1.099,,,,,,,,
277,13538,EROSKI,"CARRETERA MA-13 A, ESQUINA CAMI AGUA KM. S/N",BINISSALEM               ,07350,2.851556,39.686806,N,P,dm,L-D: 24H,4,7,802,Baleares,BALEARS (ILLES),Binissalem,2021-01-15,1.219,,,,,1.109,,,,,,,,
278,2600,CEPSA,"CARRETERA CABO BLANCO KM. 3,6",LLUCMAJOR                ,07620,2.745556,39.477778,I,P,dm,L-D: 06:00-22:00,4,7,826,Baleares,BALEARS (ILLES),Llucmajor,2021-01-24,1.339,,,1.484,,1.199,,1.274,,,,,,
279,2689,CEPSA,CARRETERA PALMA-PORTOPETRO KM. 23,LLUCMAJOR                ,07620,2.881472,39.494556,D,P,dm,L-S: 06:00-22:00; D: 06:00-14:00,4,7,826,Baleares,BALEARS (ILLES),Llucmajor,2021-01-22,1.339,1.409,,,,1.199,,1.274,,,,,,
280,12388,BP,"CARRETERA IBIZA - SAN MIGUEL KM. 4,9",SANTA GERTRUDIS          ,07814,1.434167,38.991556,D,P,dm,L: 07:00-22:45,4,7,850,Baleares,BALEARS (ILLES),Santa Eulalia del Río,2021-01-17,1.339,,,1.479,,1.229,0.929,,,,,,,
281,2641,SHELL,"CARRETERA DE DEIA,S/N KM. 71,110",VALLDEMOSSA              ,07170,2.60975,39.712778,D,P,dm,L-D: 06:00-00:00,4,7,859,Baleares,BALEARS (ILLES),Valldemossa,2021-01-18,1.339,,,1.479,,1.189,,1.269,,,,,,
282,2600,CEPSA,"CARRETERA CABO BLANCO KM. 3,6",LLUCMAJOR                ,07620,2.745556,39.477778,I,P,dm,L-D: 06:00-22:00,4,7,826,Baleares,BALEARS (ILLES),Llucmajor,2021-01-25,1.339,,,1.486,,1.199,,1.269,,,,,,
283,2700,REPSOL,"CARRETERA C-717 KM. 49,7",CAMPOS                   ,07630,3.125306,39.358278,I,P,dm,L-S: 06:00-22:30; D: 07:00-22:30,4,7,807,Baleares,BALEARS (ILLES),Campos,2021-01-28,1.339,,,1.489,,1.199,0.901,1.289,,,,,,
284,2700,REPSOL,"CARRETERA C-717 KM. 49,7",CAMPOS                   ,07630,3.125306,39.358278,I,P,dm,L-S: 06:00-22:30; D: 07:00-22:30,4,7,807,Baleares,BALEARS (ILLES),Campos,2021-01-30,1.339,,,1.489,,1.199,0.906,1.289,,,,,,
285,11560,REPSOL,"CARRETERA PM-111 KM. 8,6",VALLDEMOSSA              ,07170,2.648028,39.643333,D,P,OM,L-D: 06:00-22:00,4,7,859,Baleares,BALEARS (ILLES),Valldemossa,2021-01-22,1.339,,,1.479,,1.189,0.958,1.289,,,,,,
286,2707,REPSOL,CARRETERA C-717 KM. 38,SANTANYI                 ,07650,3.024111,39.426417,I,P,dm,L-D: 06:00-22:30,4,7,853,Baleares,BALEARS (ILLES),Santanyí,2021-01-19,1.339,1.379,,1.489,,1.219,0.903,1.309,,,,,,
287,2707,REPSOL,CARRETERA C-717 KM. 38,SANTANYI                 ,07650,3.024111,39.426417,I,P,dm,L-D: 06:00-22:30,4,7,853,Baleares,BALEARS (ILLES),Santanyí,2021-01-21,1.339,1.379,,1.489,,1.209,0.903,1.299,,,,,,
288,2574,REPSOL,"CARRETERA PM-602 KM. 8,2",LLUCMAJOR                ,07620,2.789389,39.493778,I,P,dm,L-D: 06:00-22:00,4,7,826,Baleares,BALEARS (ILLES),Llucmajor,2021-01-31,1.339,1.379,,1.489,,1.209,,1.299,,,0.659,,,
289,2593,LAS GAVIOTAS,"CALLE CRUCERO, 12",PLATJA DE MURO           ,07408,3.109972,39.81425,D,P,dm,L-D: 08:00-16:00,4,7,835,Baleares,BALEARS (ILLES),Muro,2021-01-26,1.339,,,1.499,,1.219,,1.319,,,,,,
290,13538,EROSKI,"CARRETERA MA-13 A, ESQUINA CAMI AGUA KM. S/N",BINISSALEM               ,07350,2.851556,39.686806,N,P,dm,L-D: 24H,4,7,802,Baleares,BALEARS (ILLES),Binissalem,2021-01-19,1.239,,,,,1.129,,,,,,,,
291,2601,PETROEST,"CARRETERA PM-402 KM. 5,6",MANACOR                  ,07500,3.262972,39.561028,D,P,dm,L-D: 24H,4,7,827,Baleares,BALEARS (ILLES),Manacor,2021-01-19,1.239,,,,,1.119,,1.159,,,,,,
292,2622,REPSOL,"CARRETERA C-733 KM. 19,700",SANT JOAN DE LABRITJA    ,07810,1.496222,39.070278,I,P,dm,L-S: 07:00-22:00,4,7,845,Baleares,BALEARS (ILLES),Sant Joan de Labritja,2021-01-28,1.359,,,1.509,,1.249,0.929,,,,,,,
293,2581,CEPSA,"CALLE CERVANTES ESQUINA VELAZQUEZ, 44",SANT ANTONI DE PORTMANY  ,07820,1.297806,38.9835,D,P,dm,L-S: 07:00-21:00,4,7,843,Baleares,BALEARS (ILLES),Sant Antoni de Portmany,2021-01-31,1.359,1.419,,,,1.249,,,,,,,,
294,2730,REPSOL,"CARRETERA PM-810 KM. 0,3",SANTA EULALIA            ,07840,1.538861,38.987917,D,P,dm,L-D: 07:00-23:00,4,7,850,Baleares,BALEARS (ILLES),Santa Eulalia del Río,2021-01-25,1.359,,,1.509,,1.249,,,,,0.629,,,
295,2588,CEPSA ,"CARRER ALCALDE BARTOLOME ROSELLO SALA, 2",EIVISSA                  ,07800,1.437167,38.918833,D,P,dm,L-D: 24H,4,7,814,Baleares,BALEARS (ILLES),Eivissa,2021-01-31,1.359,,,1.519,,1.249,,1.349,,,,,,
296,2588,CEPSA ,"CARRER ALCALDE BARTOLOME ROSELLO SALA, 2",EIVISSA                  ,07800,1.437167,38.918833,D,P,dm,L-D: 24H,4,7,814,Baleares,BALEARS (ILLES),Eivissa,2021-01-14,1.359,,,1.509,,1.249,,1.349,,,,,,
297,2680,CEPSA,"CARRER CONVENT, 29",SANTANYI                 ,07650,3.166778,39.383944,I,P,dm,L-S: 07:00-21:00,4,7,853,Baleares,BALEARS (ILLES),Santanyí,2021-01-29,1.359,1.429,,,,1.229,0.879,1.309,,,,,,
298,2627,REPSOL,"CARRETERA IBIZA - SAN JUAN KM. 1,7",EIVISSA                  ,07800,1.440139,38.922167,I,P,dm,L-D: 07:00-23:00,4,7,814,Baleares,BALEARS (ILLES),Eivissa,2021-01-25,1.359,,,1.509,,1.249,,1.339,,,,,,
299,2577,REPSOL,"CARRETERA C-731 KM. 7,15",SANT RAFEL               ,07816,1.397306,38.961306,D,P,dm,L: 24H,4,7,843,Baleares,BALEARS (ILLES),Sant Antoni de Portmany,2021-01-25,1.359,,,1.509,,1.249,0.929,1.339,,,0.629,,,
300,2627,REPSOL,"CARRETERA IBIZA - SAN JUAN KM. 1,7",EIVISSA                  ,07800,1.440139,38.922167,I,P,dm,L-D: 07:00-23:00,4,7,814,Baleares,BALEARS (ILLES),Eivissa,2021-01-29,1.359,,,1.509,,1.249,,1.339,,,,,,
301,2630,BP SANT JORDI,"CARRETERA AEROPUERTO KM. 4,5",SANT JOSEP DE SA TALAIA  ,07830,1.392139,38.886028,D,P,OM,L-D: 07:00-23:00,4,7,846,Baleares,BALEARS (ILLES),Sant Josep de sa Talaia,2021-01-23,1.359,,,1.501,,1.249,,1.339,,,,,,
302,14128,AUTONETOIL,"CARRER DE SON PENDOLA, 1",PALMA                    ,07007,2.68,39.566222,D,P,dm,L-D: 24H,4,7,836,Baleares,BALEARS (ILLES),Palma de Mallorca,2021-01-10,1.139,,,,,1.049,,1.079,,,,,,
303,14411,GALP,"GRAN VÍA ASIMA, 23",PALMA                    ,07009,2.667889,39.607194,D,P,dm,L-D: 06:00-22:00,4,7,836,Baleares,BALEARS (ILLES),Palma de Mallorca,2021-01-14,1.259,,,,,1.149,,,,,,,,
304,14289,SHELL,"CARRER CAMÍ DE MUNTANYA ESQ CARRER CELLETERS, S/N",CABANETA (SA)            ,07141,2.715056,39.618611,D,P,OM,L-D: 06:00-00:00,4,7,831,Baleares,BALEARS (ILLES),Marratxí,2021-01-27,1.259,,,,,1.159,,,,,,,,
305,2716,BP,CARRETERA PM 402 KM. 9,PORTO CRISTO             ,07680,3.263111,39.561,I,P,dm,L-D: 06:00-22:00,4,7,827,Baleares,BALEARS (ILLES),Manacor,2021-01-04,1.259,,,1.409,,1.139,,1.229,,,,,,
306,2587,CEPSA,"CALLE BINIAMAR, 16",PALMA                    ,07008,2.678806,39.581722,D,P,dm,L-D: 06:00-22:00,4,7,836,Baleares,BALEARS (ILLES),Palma de Mallorca,2021-01-02,1.259,1.319,,1.404,,1.159,,1.229,,,,,,
307,13088,AUTONETOIL,"CALLE FERRERS, 12",CIUTADELLA DE MENORCA    ,07760,3.853361,40.007139,D,P,dm,L-D: 24H,4,7,810,Baleares,BALEARS (ILLES),Ciutadella de Menorca,2021-01-11,1.259,,,,,1.159,,1.189,,,,,,
308,13465,GMOIL,"CALLE BAJOLI ( POLIGONO INDUSTRIAL ARTRUIX ), 39",MAO                      ,07714,4.240472,39.883917,D,P,dm,L-D: 24H,4,7,829,Baleares,BALEARS (ILLES),Mahón,2021-01-17,1.159,,,,,1.039,,,,,,,,
309,2665,CEPSA,"PM-719 km 12,4",PALMANOVA                ,07181,2.541556,39.528083,I,P,dm,L-D: 06:00-22:00,4,7,805,Baleares,BALEARS (ILLES),Calvià,2021-01-04,1.279,1.354,,,,1.165,,1.255,,,,,,
310,2664,CEPSA,"PLAZA HOSTALS, 4",SANTA MARIA DEL CAMI     ,07320,2.773861,39.651694,D,P,dm,L-S: 06:30-20:30,4,7,852,Baleares,BALEARS (ILLES),Santa María del Camí,2021-01-08,1.279,,,,,1.169,,,,,,,,
311,13041,GALP,"CALLE FERRERS, 1",CIUTADELLA DE MENORCA    ,07760,3.853444,40.005611,D,P,dm,L-D: 24H,4,7,810,Baleares,BALEARS (ILLES),Ciutadella de Menorca,2021-01-02,1.279,,,,,1.169,,,,,,,,
312,14289,SHELL,"CARRER CAMÍ DE MUNTANYA ESQ CARRER CELLETERS, S/N",CABANETA (SA)            ,07141,2.715056,39.618611,D,P,OM,L-D: 06:00-00:00,4,7,831,Baleares,BALEARS (ILLES),Marratxí,2021-01-22,1.279,,,,,1.179,,,,,,,,
313,2706,REPSOL,"CALLE ANTONI CALAFAT, 22",PORT D'ANDRATX           ,07157,2.389306,39.542972,D,P,dm,L-D: 24H,4,7,798,Baleares,BALEARS (ILLES),Andratx,2021-01-06,1.279,,,1.429,,1.169,,1.229,,,,,,
314,2644,BP,"CALLE ANDREA DORIA, ESQUINA SON ARMADANS, S/N",PALMA                    ,07014,2.625472,39.571278,D,P,dm,L-D: 24H,4,7,836,Baleares,BALEARS (ILLES),Palma de Mallorca,2021-01-08,1.279,,,1.429,,1.169,,1.249,,,,,,
315,12188,CEPSA,"RONDA DE PEGUERA, SN",CALVIA                   ,07184,2.451583,39.544306,D,P,OM,L-D: 06:00-22:00,4,7,805,Baleares,BALEARS (ILLES),Calvià,2021-01-13,1.279,,,1.424,,1.179,,1.249,,,,,,
316,2716,BP,CARRETERA PM 402 KM. 9,PORTO CRISTO             ,07680,3.263111,39.561,I,P,dm,L-D: 06:00-22:00,4,7,827,Baleares,BALEARS (ILLES),Manacor,2021-01-09,1.279,,,1.429,,1.159,,1.249,,,,,,
317,2722,BP,"CALLE ILLES BALEARS, 1",CALVIA                   ,07184,2.501889,39.529306,N,P,dm,L-D: 24H,4,7,805,Baleares,BALEARS (ILLES),Calvià,2021-01-29,1.279,,,1.459,,1.169,,1.269,,,,,,
318,2681,GALP,"CALLE MANUEL AZAÑA, 5",PALMA                    ,07006,2.6635,39.565194,N,P,dm,L-D: 24H,4,7,836,Baleares,BALEARS (ILLES),Palma de Mallorca,2021-01-17,1.279,,,1.429,,1.159,,1.199,,,,,,
319,2681,GALP,"CALLE MANUEL AZAÑA, 5",PALMA                    ,07006,2.6635,39.565194,N,P,dm,L-D: 24H,4,7,836,Baleares,BALEARS (ILLES),Palma de Mallorca,2021-01-24,1.279,,,1.429,,1.159,,1.199,,,,,,
320,9871,SHELL,CTA. MANACOR C-715 km 6.7,CASA BLANCA (SA)         ,07198,2.735833,39.570556,N,P,dm,L-D: 24H,4,7,836,Baleares,BALEARS (ILLES),Palma de Mallorca,2021-01-03,1.279,,,1.399,,1.149,,1.219,,,,,,
321,2604,CEPSA,"CARRETERA C-711 KM. 16,5",BUNYOLA                  ,07110,2.69025,39.712667,D,P,dm,L-D: 07:00-21:30,4,7,804,Baleares,BALEARS (ILLES),Bunyola,2021-01-08,1.279,1.339,,,,1.169,,1.239,,,,,,
322,2602,CEPSA,"CARRETERA VELLA DE SINEU PMV3011 KM. 15,5",SANTA EUGENIA            ,07142,2.834306,39.612667,I,P,dm,L-S: 06:30-20:30,4,7,849,Baleares,BALEARS (ILLES),Santa Eugènia,2021-01-08,1.279,1.339,,,,1.169,0.768,1.239,,,,,,
323,2738,BP,"CARRETERA 10, CAMINO DE CAN CAPO, SŽARANJASSA KM. 717",ARANJASSA (S')           ,07199,2.736056,39.535306,D,P,dm,L-D: 24H,4,7,836,Baleares,BALEARS (ILLES),Palma de Mallorca,2021-01-05,1.279,,,1.429,,1.159,,1.239,,,,,,
324,2720,REPSOL,CARRETERA PALMA-PUERTO ANDRATX KM. 19,COSTA DE LA CALMA        ,07183,2.486722,39.526472,D,P,dm,L-S: 06:00-22:00,4,7,805,Baleares,BALEARS (ILLES),Calvià,2021-01-13,1.279,,,1.429,,1.169,,1.259,,,,,,
325,2720,REPSOL,CARRETERA PALMA-PUERTO ANDRATX KM. 19,COSTA DE LA CALMA        ,07183,2.486722,39.526472,D,P,dm,L-S: 06:00-22:00,4,7,805,Baleares,BALEARS (ILLES),Calvià,2021-01-11,1.279,,,1.429,,1.169,,1.259,,,,,,
326,2583,CEPSA,"CARRETERA PALMA NOVA - CALVIA KM. 5,5",CALVIA                   ,07184,2.507667,39.559833,I,P,dm,L-D: 06:00-22:00,4,7,805,Baleares,BALEARS (ILLES),Calvià,2021-01-22,1.279,,,1.454,,1.179,,1.279,,,,,,
327,2697,CEPSA,"CARRETERA PM-810 KM. 3,3",SANTA EULALIA            ,07840,1.495111,38.984889,D,P,dm,L-D: 06:00-22:00,4,7,850,Baleares,BALEARS (ILLES),Santa Eulalia del Río,2021-01-10,1.334,,,,,1.225,,1.295,,,,,,
328,2566,REPSOL,"CARRETERA MA15 KM. 54,800",SANT LLORENÇ DES CARDASSAR,07530,3.270694,39.600722,I,P,dm,L: 06:30-22:00,4,7,847,Baleares,BALEARS (ILLES),Sant Llorenç des Cardassar,2021-01-20,1.308,,,1.448,,1.178,,1.258,,,,,,
329,2649,BP,"CALLE MUSICO ISAAC ALBENIZ, S/N",PALMA                    ,07009,2.662056,39.586306,D,P,dm,L-D: 05:30-21:30,4,7,836,Baleares,BALEARS (ILLES),Palma de Mallorca,2021-01-16,1.284,,,1.414,,1.173,,1.244,,,,,,
330,2566,REPSOL,"CARRETERA MA15 KM. 54,800",SANT LLORENÇ DES CARDASSAR,07530,3.270694,39.600722,I,P,dm,L: 06:30-22:00,4,7,847,Baleares,BALEARS (ILLES),Sant Llorenç des Cardassar,2021-01-17,1.308,,,1.448,,1.178,,1.258,,,,,,
331,2649,BP,"CALLE MUSICO ISAAC ALBENIZ, S/N",PALMA                    ,07009,2.662056,39.586306,D,P,dm,L-D: 05:30-21:30,4,7,836,Baleares,BALEARS (ILLES),Palma de Mallorca,2021-01-24,1.288,,,1.424,,1.184,,1.253,,,,,,
332,2565,CEPSA,"AVENIDA JOAN MIRO, 22",PALMA                    ,07014,2.626444,39.565778,D,P,dm,L-D: 06:00-22:00,4,7,836,Baleares,BALEARS (ILLES),Palma de Mallorca,2021-01-05,1.284,1.344,,,,1.165,,1.235,,,,,,
333,2643,BP  SANTA EULALIA - IBIZA,"AVENIDA SAN JAUME, 30",SANTA EULALIA            ,07840,1.531861,38.983528,N,P,dm,L-D: 07:00-23:00,4,7,850,Baleares,BALEARS (ILLES),Santa Eulalia del Río,2021-01-11,1.34,,,1.482,,1.236,,1.326,,,,,,
334,14342,SHELL,"CARRER SABATERS, SN",LLOSETA                  ,07360,2.870417,39.7035,D,P,dm,L-D: 24H,4,7,824,Baleares,BALEARS (ILLES),Lloseta,2021-01-08,1.285,,,1.419,,1.165,,1.245,,,,,,
335,13474,SHELL,"CALLE HORT DE SES ÀNIMES, 23",PALMA                    ,07007,2.685778,39.567083,D,P,dm,L-D: 24H,4,7,836,Baleares,BALEARS (ILLES),Palma de Mallorca,2021-01-05,1.228,,,1.328,,1.118,,1.218,,,,,,
336,2643,BP  SANTA EULALIA - IBIZA,"AVENIDA SAN JAUME, 30",SANTA EULALIA            ,07840,1.531861,38.983528,N,P,dm,L-D: 07:00-23:00,4,7,850,Baleares,BALEARS (ILLES),Santa Eulalia del Río,2021-01-17,1.34,,,1.482,,1.236,,1.326,,,,,,
337,2601,PETROEST,"CARRETERA PM-402 KM. 5,6",MANACOR                  ,07500,3.262972,39.561028,D,P,dm,L-D: 24H,4,7,827,Baleares,BALEARS (ILLES),Manacor,2021-01-02,1.216,1.256,,,,1.097,,1.137,,,,,,
338,2649,BP,"CALLE MUSICO ISAAC ALBENIZ, S/N",PALMA                    ,07009,2.662056,39.586306,D,P,dm,L-D: 05:30-21:30,4,7,836,Baleares,BALEARS (ILLES),Palma de Mallorca,2021-01-19,1.288,,,1.424,,1.184,,1.253,,,,,,
339,2631,BP BALMES,"CALLE JAUME BALMES, 44",PALMA                    ,07004,2.659194,39.580194,N,P,dm,L-D: 06:30-22:30,4,7,836,Baleares,BALEARS (ILLES),Palma de Mallorca,2021-01-09,1.264,,,1.392,,1.152,,1.222,,,,,,
340,13474,SHELL,"CALLE HORT DE SES ÀNIMES, 23",PALMA                    ,07007,2.685778,39.567083,D,P,dm,L-D: 24H,4,7,836,Baleares,BALEARS (ILLES),Palma de Mallorca,2021-01-15,1.228,,,1.328,,1.128,,1.228,,,,,,
341,2649,BP,"CALLE MUSICO ISAAC ALBENIZ, S/N",PALMA                    ,07009,2.662056,39.586306,D,P,dm,L-D: 05:30-21:30,4,7,836,Baleares,BALEARS (ILLES),Palma de Mallorca,2021-01-31,1.288,,,1.424,,1.184,,1.253,,,,,,
342,2617,REPSOL,"CARRETERA PM104 KM. 12,8",ESPORLES                 ,07190,2.58825,39.659278,D,P,dm,L-V: 06:30-21:30; S: 07:00-21:00; D: 08:00-21:00,4,7,816,Baleares,BALEARS (ILLES),Esporles,2021-01-22,1.326,,,1.46,,1.186,,1.261,,,,,,
343,2631,BP BALMES,"CALLE JAUME BALMES, 44",PALMA                    ,07004,2.659194,39.580194,N,P,dm,L-D: 06:30-22:30,4,7,836,Baleares,BALEARS (ILLES),Palma de Mallorca,2021-01-10,1.264,,,1.392,,1.152,,1.222,,,,,,
344,2649,BP,"CALLE MUSICO ISAAC ALBENIZ, S/N",PALMA                    ,07009,2.662056,39.586306,D,P,dm,L-D: 05:30-21:30,4,7,836,Baleares,BALEARS (ILLES),Palma de Mallorca,2021-01-04,1.257,,,1.394,,1.147,,1.213,,,,,,
345,2682,REPSOL,"AVENIDA GABRIEL ALOMAR Y VILLALONGA, S/N",PALMA                    ,07006,2.656778,39.566528,D,P,dm,L-D: 24H,4,7,836,Baleares,BALEARS (ILLES),Palma de Mallorca,2021-01-25,1.305,,,1.455,,1.195,,1.275,,,,,,
346,13135,BUGA 2000,"CARRER M.MEDITERRÀNIA, 24",SANTA PONÇA              ,07180,2.504611,39.529111,I,P,dm,L-D: 06:00-23:00,4,7,805,Baleares,BALEARS (ILLES),Calvià,2021-01-23,1.198,,,,,,,1.098,,,,,,
347,2617,REPSOL,"CARRETERA PM104 KM. 12,8",ESPORLES                 ,07190,2.58825,39.659278,D,P,dm,L-V: 06:30-21:30; S: 07:00-21:00; D: 08:00-21:00,4,7,816,Baleares,BALEARS (ILLES),Esporles,2021-01-21,1.327,,,1.461,,1.191,,1.265,,,,,,
348,2649,BP,"CALLE MUSICO ISAAC ALBENIZ, S/N",PALMA                    ,07009,2.662056,39.586306,D,P,dm,L-D: 05:30-21:30,4,7,836,Baleares,BALEARS (ILLES),Palma de Mallorca,2021-01-14,1.277,,,1.394,,1.167,,1.237,,,,,,
349,2596,PETRONOR,"CR PM-401, 0,4",FELANITX                 ,07200,3.158722,39.473667,I,P,dm,L-D: 00:00-23:59,4,7,818,Baleares,BALEARS (ILLES),Felanitx,2021-01-18,1.318,,,1.448,,1.188,,1.218,,,,,,
350,13135,BUGA 2000,"CARRER M.MEDITERRÀNIA, 24",SANTA PONÇA              ,07180,2.504611,39.529111,I,P,dm,L-D: 06:00-23:00,4,7,805,Baleares,BALEARS (ILLES),Calvià,2021-01-11,1.178,,,,,,,1.078,,,,,,
351,2695,BP AMANECER,"CALLE ALFONS EL MAGNANIM, 90",PALMA                    ,07004,2.654472,39.594167,N,P,dm,L-D: 24H,4,7,836,Baleares,BALEARS (ILLES),Palma de Mallorca,2021-01-05,1.265,,,1.395,,1.158,,1.238,,,,,,
352,13135,BUGA 2000,"CARRER M.MEDITERRÀNIA, 24",SANTA PONÇA              ,07180,2.504611,39.529111,I,P,dm,L-D: 06:00-23:00,4,7,805,Baleares,BALEARS (ILLES),Calvià,2021-01-29,1.198,,,,,,,1.098,,,,,,
353,2743,REPSOL,"CALLE ARAGON, 217",PALMA                    ,07008,2.676472,39.589167,I,P,dm,L-D: 24H,4,7,836,Baleares,BALEARS (ILLES),Palma de Mallorca,2021-01-23,1.315,,,1.455,,1.195,,1.275,,,,,,
354,2602,CEPSA,"CARRETERA VELLA DE SINEU PMV3011 KM. 15,5",SANTA EUGENIA            ,07142,2.834306,39.612667,I,P,dm,L-S: 06:30-20:30,4,7,849,Baleares,BALEARS (ILLES),Santa Eugènia,2021-01-06,1.284,1.344,,,,1.165,0.769,1.235,,,,,,
355,2718,REPSOL,"CARRETERA PM-334 KM. 1,1",PETRA                    ,07520,3.109028,39.625889,D,P,dm,L-S: 06:30-21:00; D: 07:00-21:00,4,7,837,Baleares,BALEARS (ILLES),Petra,2021-01-10,1.298,,,1.429,,1.178,0.855,1.258,,,,,,
356,2568,REPSOL,"CARRETERA MA-3431 KM. 0,200",MURO                     ,07440,3.052639,39.7415,I,P,dm,L-S: 06:00-22:00; D: 08:00-14:00,4,7,835,Baleares,BALEARS (ILLES),Muro,2021-01-11,1.288,,,1.414,,1.179,,1.248,,,,,,
357,2699,REPSOL,"C-712 km 22,3",CA'N PICAFORT            ,07458,3.15075,39.763139,I,P,dm,L-D: 06:00-22:00,4,7,851,Baleares,BALEARS (ILLES),Santa Margalida,2021-01-15,1.308,,,1.445,,1.199,,1.268,,,,,,
358,2689,CEPSA,CARRETERA PALMA-PORTOPETRO KM. 23,LLUCMAJOR                ,07620,2.881472,39.494556,D,P,dm,L-S: 06:00-22:00; D: 06:00-14:00,4,7,826,Baleares,BALEARS (ILLES),Llucmajor,2021-01-18,1.334,1.399,,,,1.199,,1.274,,,,,,
359,2699,REPSOL,"C-712 km 22,3",CA'N PICAFORT            ,07458,3.15075,39.763139,I,P,dm,L-D: 06:00-22:00,4,7,851,Baleares,BALEARS (ILLES),Santa Margalida,2021-01-08,1.288,,,1.425,,1.179,,1.248,,,,,,
360,9871,SHELL,CTA. MANACOR C-715 km 6.7,CASA BLANCA (SA)         ,07198,2.735833,39.570556,N,P,dm,L-D: 24H,4,7,836,Baleares,BALEARS (ILLES),Palma de Mallorca,2021-01-11,1.285,,,1.419,,1.159,,1.235,,,,,,
361,2658,REPSOL,"CALLE CRISTOFOR COLOM   P.COLOM, 33",PORTOCOLOM               ,07670,3.2615,39.421,I,P,dm,L-S: 07:00-20:00; D: 08:00-13:00,4,7,818,Baleares,BALEARS (ILLES),Felanitx,2021-01-22,1.347,,,,,1.227,,,,,,,,
362,2701,REPSOL,"AVENIDA SANTA MARGARITA, 49",MURO                     ,07440,3.059583,39.729306,D,P,dm,L-S: 06:00-22:00,4,7,835,Baleares,BALEARS (ILLES),Muro,2021-01-10,1.288,,,1.414,,1.179,0.789,,,,,,,
363,2620,GALP,"AVENIDA SANT JUSEP DE SA TALAYA, 42",EIVISSA                  ,07800,1.412806,38.905194,D,P,dm,L: 07:00-23:00,4,7,814,Baleares,BALEARS (ILLES),Eivissa,2021-01-09,1.338,,,,,1.221,,,,,,,,
364,2569,REPSOL,"CALLE PINTOR TORRENT, 10",CIUTADELLA DE MENORCA    ,07760,3.833056,40.007833,D,P,dm,L-D: 06:00-22:00,4,7,810,Baleares,BALEARS (ILLES),Ciutadella de Menorca,2021-01-25,1.325,,,,,1.229,,,,,0.649,,,
365,2571,REPSOL,"CARRETERA LA SABINA- EL PILAR KM. 4,6",SANT FRANCESC FORMENTERA ,07860,1.445417,38.708444,I,P,dm,L-S: 07:00-21:00; D: 09:00-21:00,4,7,820,Baleares,BALEARS (ILLES),Formentera,2021-01-04,1.32,,,,,1.209,,,,,,,,
366,2571,REPSOL,"CARRETERA LA SABINA- EL PILAR KM. 4,6",SANT FRANCESC FORMENTERA ,07860,1.445417,38.708444,I,P,dm,L-S: 07:00-21:00; D: 09:00-21:00,4,7,820,Baleares,BALEARS (ILLES),Formentera,2021-01-10,1.32,,,,,1.209,,,,,,,,
367,2668,CEPSA,"CALLE CAUTIVOS DE CONSTANTINIPLA, S/N",CIUTADELLA DE MENORCA    ,07760,3.843556,40.001389,D,P,dm,L-D: 06:00-22:00,4,7,810,Baleares,BALEARS (ILLES),Ciutadella de Menorca,2021-01-18,1.295,,,,,1.195,,,,,,,,
368,2668,CEPSA,"CALLE CAUTIVOS DE CONSTANTINIPLA, S/N",CIUTADELLA DE MENORCA    ,07760,3.843556,40.001389,D,P,dm,L-D: 06:00-22:00,4,7,810,Baleares,BALEARS (ILLES),Ciutadella de Menorca,2021-01-02,1.285,,,,,1.175,,,,,,,,
369,13267,CARBURANTS LOW COST,"CALLE B, 35",MERCADAL (ES)            ,07740,4.081806,39.987722,D,P,dm,L-D: 24H,4,7,832,Baleares,BALEARS (ILLES),Mercadal (Es),2021-01-24,1.28,,,,,1.199,,,,,,,,
370,13267,CARBURANTS LOW COST,"CALLE B, 35",MERCADAL (ES)            ,07740,4.081806,39.987722,D,P,dm,L-D: 24H,4,7,832,Baleares,BALEARS (ILLES),Mercadal (Es),2021-01-22,1.28,,,,,1.199,,,,,,,,
371,2726,REPSOL,"CALLE CALA BLANCA,, 9",PALMA                    ,07009,2.676389,39.597222,D,P,dm,L-V: 06:00-22:00; S-D: 07:00-22:00,4,7,836,Baleares,BALEARS (ILLES),Palma de Mallorca,2021-01-26,1.305,,,1.455,,1.189,,1.269,,,,,,
372,2568,REPSOL,"CARRETERA MA-3431 KM. 0,200",MURO                     ,07440,3.052639,39.7415,I,P,dm,L-S: 06:00-22:00; D: 08:00-14:00,4,7,835,Baleares,BALEARS (ILLES),Muro,2021-01-25,1.328,,,1.455,,1.209,,1.289,,,,,,
373,2570,REPSOL,"CARRETERA PM-808 KM. 1,25",EIVISSA                  ,07800,1.417972,38.905583,I,P,dm,L-D: 24H,4,7,814,Baleares,BALEARS (ILLES),Eivissa,2021-01-09,1.335,,,1.485,,1.229,,1.319,,,0.629,,,
374,2696,CEPSA,"CARRETERA PM-803 KM. 14,3",SANT JOSEP DE SA TALAIA  ,07830,1.305611,38.92175,D,P,dm,L-D: 06:00-23:59,4,7,846,Baleares,BALEARS (ILLES),Sant Josep de sa Talaia,2021-01-19,1.354,1.414,,,,1.249,,1.319,,,,,,
375,2725,CEPSA,CARRETERA C-731 KM. 13,SANT ANTONI DE PORTMANY  ,07820,1.331,38.975056,I,P,dm,L-D: 24H,4,7,843,Baleares,BALEARS (ILLES),Sant Antoni de Portmany,2021-01-19,1.354,1.414,,,,1.249,,1.319,,,,,,
376,2713,REPSOL,"AVENIDA JUAN CARLOS I, S/N",CAPDEPERA                ,07580,3.451667,39.705278,D,P,dm,L-D: 06:00-22:00,4,7,808,Baleares,BALEARS (ILLES),Capdepera,2021-01-07,1.285,,,1.435,,1.169,,1.239,,,,,,
377,2679,CEPSA,"AVENIDA FRANCESC DE BORJA MOLL, 61",SALINES (SES)            ,07640,3.046389,39.341333,I,P,dm,L-S: 08:00-20:00,4,7,842,Baleares,BALEARS (ILLES),Salines (Ses),2021-01-31,1.334,1.394,,,,1.189,,1.259,,,,,,
378,2575,CEPSA,"CALLE ES CARRERO, 0",SON MORO                 ,07560,3.382056,39.59625,D,P,dm,L-D: 06:00-23:00,4,7,847,Baleares,BALEARS (ILLES),Sant Llorenç des Cardassar,2021-01-22,1.314,1.374,,,,1.189,,1.259,,,,,,
379,2594,CEPSA,"CARRETERA C-717 PALMA - PORTO PETRO KM. 34,5",CAMPOS                   ,07630,3.004667,39.437611,D,P,dm,L-D: 24H,4,7,807,Baleares,BALEARS (ILLES),Campos,2021-01-17,1.324,,,1.469,,1.189,0.793,1.259,,,,,,
380,12188,CEPSA,"RONDA DE PEGUERA, SN",CALVIA                   ,07184,2.451583,39.544306,D,P,OM,L-D: 06:00-22:00,4,7,805,Baleares,BALEARS (ILLES),Calvià,2021-01-28,1.304,,,1.449,,1.189,,1.259,,,,,,
381,14144,REPSOL,"CARRETERA MA-4040 KM. 2,5",SON SERVERA              ,07550,3.373417,39.643333,I,P,dm,L-V: 08:00-17:00,4,7,858,Baleares,BALEARS (ILLES),Son Servera,2021-01-14,,,,,,,,,,,0.639,,,
382,12577,REPSOL BUTANO,"CARRETERA PMV-1031 KM. 1,5",CALVIA                   ,07184,2.490722,39.5685,I,P,dm,L-V: 09:00-16:00; S: 08:30-13:30,4,7,805,Baleares,BALEARS (ILLES),Calvià,2021-01-31,,,,,,,,,,,0.635,,,
383,12564,COOPERATIVA SANTA EULALIA,"CARRETERA PM-810 KM. 4,150",SANTA EULALIA            ,07840,1.529167,38.982667,N,P,dm,L-V: 08:00-18:00; S: 08:00-13:00,4,7,850,Baleares,BALEARS (ILLES),Santa Eulalia del Río,2021-01-13,,,,,,1.089,0.79,,,,,,,
384,12579,REPSOL BUTANO,"CAMINO PUIG DE SANTA MAGDALENA, S/N",INCA                     ,07300,2.939861,39.731333,D,P,dm,L-V: 08:00-18:30; S: 08:30-13:00,4,7,822,Baleares,BALEARS (ILLES),Inca,2021-01-15,,,,,,,,,,,0.639,,,
385,12582,REPSOL BUTANO,"CAMI LA MILANA, 49",SON SANT JOAN            ,07198,2.720917,39.565639,I,P,dm,L-D: 07:00-21:00,4,7,836,Baleares,BALEARS (ILLES),Palma de Mallorca,2021-01-23,,,,,,,,,,,0.639,,,
386,12564,COOPERATIVA SANTA EULALIA,"CARRETERA PM-810 KM. 4,150",SANTA EULALIA            ,07840,1.529167,38.982667,N,P,dm,L-V: 08:00-18:00; S: 08:00-13:00,4,7,850,Baleares,BALEARS (ILLES),Santa Eulalia del Río,2021-01-18,,,,,,1.089,0.79,,,,,,,
387,12574,REPSOL BUTANO,"CARRETERA MA-15 KM. 44,5",MANACOR                  ,07500,3.159556,39.573556,D,P,dm,L-V: 07:00-19:00; S: 07:00-18:00,4,7,827,Baleares,BALEARS (ILLES),Manacor,2021-01-16,,,,,,,,,,,0.645,,,
388,12574,REPSOL BUTANO,"CARRETERA MA-15 KM. 44,5",MANACOR                  ,07500,3.159556,39.573556,D,P,dm,L-V: 07:00-19:00; S: 07:00-18:00,4,7,827,Baleares,BALEARS (ILLES),Manacor,2021-01-20,,,,,,,,,,,0.645,,,
389,12577,REPSOL BUTANO,"CARRETERA PMV-1031 KM. 1,5",CALVIA                   ,07184,2.490722,39.5685,I,P,dm,L-V: 09:00-16:00; S: 08:30-13:30,4,7,805,Baleares,BALEARS (ILLES),Calvià,2021-01-29,,,,,,,,,,,0.635,,,
390,14144,REPSOL,"CARRETERA MA-4040 KM. 2,5",SON SERVERA              ,07550,3.373417,39.643333,I,P,dm,L-V: 08:00-17:00,4,7,858,Baleares,BALEARS (ILLES),Son Servera,2021-01-15,,,,,,,,,,,0.639,,,
391,12577,REPSOL BUTANO,"CARRETERA PMV-1031 KM. 1,5",CALVIA                   ,07184,2.490722,39.5685,I,P,dm,L-V: 09:00-16:00; S: 08:30-13:30,4,7,805,Baleares,BALEARS (ILLES),Calvià,2021-01-18,,,,,,,,,,,0.639,,,
392,12564,COOPERATIVA SANTA EULALIA,"CARRETERA PM-810 KM. 4,150",SANTA EULALIA            ,07840,1.529167,38.982667,N,P,dm,L-V: 08:00-18:00; S: 08:00-13:00,4,7,850,Baleares,BALEARS (ILLES),Santa Eulalia del Río,2021-01-10,,,,,,1.089,0.79,,,,,,,
393,12564,COOPERATIVA SANTA EULALIA,"CARRETERA PM-810 KM. 4,150",SANTA EULALIA            ,07840,1.529167,38.982667,N,P,dm,L-V: 08:00-18:00; S: 08:00-13:00,4,7,850,Baleares,BALEARS (ILLES),Santa Eulalia del Río,2021-01-30,,,,,,1.089,0.79,,,,,,,
394,14144,REPSOL,"CARRETERA MA-4040 KM. 2,5",SON SERVERA              ,07550,3.373417,39.643333,I,P,dm,L-V: 08:00-17:00,4,7,858,Baleares,BALEARS (ILLES),Son Servera,2021-01-27,,,,,,,,,,,0.619,,,
395,12564,COOPERATIVA SANTA EULALIA,"CARRETERA PM-810 KM. 4,150",SANTA EULALIA            ,07840,1.529167,38.982667,N,P,dm,L-V: 08:00-18:00; S: 08:00-13:00,4,7,850,Baleares,BALEARS (ILLES),Santa Eulalia del Río,2021-01-11,,,,,,1.089,0.79,,,,,,,
396,12564,COOPERATIVA SANTA EULALIA,"CARRETERA PM-810 KM. 4,150",SANTA EULALIA            ,07840,1.529167,38.982667,N,P,dm,L-V: 08:00-18:00; S: 08:00-13:00,4,7,850,Baleares,BALEARS (ILLES),Santa Eulalia del Río,2021-01-02,,,,,,1.089,0.79,,,,,,,
397,14289,SHELL,"CARRER CAMÍ DE MUNTANYA ESQ CARRER CELLETERS, S/N",CABANETA (SA)            ,07141,2.715056,39.618611,D,P,OM,L-D: 06:00-00:00,4,7,831,Baleares,BALEARS (ILLES),Marratxí,2021-01-14,1.229,,,,,1.139,,,,,,,,
398,2645,GALP,"CARRETERA MAHÓN - FORNELLS KM. 12,6",MERCADAL (ES)            ,07740,4.195611,39.977556,D,P,dm,L-D: 24H,4,7,832,Baleares,BALEARS (ILLES),Mercadal (Es),2021-01-15,1.349,,,,,1.249,,,,,,,,
399,12388,BP,"CARRETERA IBIZA - SAN MIGUEL KM. 4,9",SANTA GERTRUDIS          ,07814,1.434167,38.991556,D,P,dm,L: 07:00-22:45,4,7,850,Baleares,BALEARS (ILLES),Santa Eulalia del Río,2021-01-24,1.349,,,1.489,,1.249,0.929,,,,,,,
400,2593,LAS GAVIOTAS,"CALLE CRUCERO, 12",PLATJA DE MURO           ,07408,3.109972,39.81425,D,P,dm,L-D: 08:00-16:00,4,7,835,Baleares,BALEARS (ILLES),Muro,2021-01-22,1.349,,,1.509,,1.229,,1.329,,,,,,
401,2586,REPSOL,CARRETERA PM-602 KM. 5,ARENAL (S')              ,07600,2.831722,39.483944,D,P,dm,L-D: 06:00-22:00,4,7,826,Baleares,BALEARS (ILLES),Llucmajor,2021-01-25,1.349,,,1.499,,1.219,,1.299,,,,,,
402,2697,CEPSA,"CARRETERA PM-810 KM. 3,3",SANTA EULALIA            ,07840,1.495111,38.984889,D,P,dm,L-D: 06:00-22:00,4,7,850,Baleares,BALEARS (ILLES),Santa Eulalia del Río,2021-01-18,1.349,,,,,1.249,,1.319,,,,,,
403,2630,BP SANT JORDI,"CARRETERA AEROPUERTO KM. 4,5",SANT JOSEP DE SA TALAIA  ,07830,1.392139,38.886028,D,P,OM,L-D: 07:00-23:00,4,7,846,Baleares,BALEARS (ILLES),Sant Josep de sa Talaia,2021-01-14,1.349,,,1.491,,1.249,,1.339,,,,,,
404,2577,REPSOL,"CARRETERA C-731 KM. 7,15",SANT RAFEL               ,07816,1.397306,38.961306,D,P,dm,L: 24H,4,7,843,Baleares,BALEARS (ILLES),Sant Antoni de Portmany,2021-01-18,1.349,,,1.499,,1.249,0.929,1.339,,,0.639,,,
405,2577,REPSOL,"CARRETERA C-731 KM. 7,15",SANT RAFEL               ,07816,1.397306,38.961306,D,P,dm,L: 24H,4,7,843,Baleares,BALEARS (ILLES),Sant Antoni de Portmany,2021-01-17,1.349,,,1.499,,1.249,0.929,1.339,,,0.639,,,
406,2733,REPSOL,"CL POLLENTIA ESQ. CL. L,ESTEL, S.N.",ALCUDIA                  ,07400,3.127083,39.850056,I,P,dm,L-D: 07:00-19:00,4,7,796,Baleares,BALEARS (ILLES),Alcúdia,2021-01-22,1.349,,,1.459,,1.229,,1.279,,,,,,
407,13582,GALP,"PLAZA SON VILAR, 14",SON VILAR                ,07720,4.2795,39.882944,N,P,dm,L-D: 24H,4,7,809,Baleares,BALEARS (ILLES),Castell (Es),2021-01-02,1.249,,,,,1.149,,,,,,,,
408,13493,GALP,"AVENIDA CAP DE CAVALLERIA, 14",MAO                      ,07714,4.249,39.888806,D,P,dm,L-D: 24H,4,7,829,Baleares,BALEARS (ILLES),Mahón,2021-01-06,1.249,,,,,1.159,,,,,,,,
409,13493,GALP,"AVENIDA CAP DE CAVALLERIA, 14",MAO                      ,07714,4.249,39.888806,D,P,dm,L-D: 24H,4,7,829,Baleares,BALEARS (ILLES),Mahón,2021-01-03,1.249,,,,,1.149,,,,,,,,
410,2722,BP,"CALLE ILLES BALEARS, 1",CALVIA                   ,07184,2.501889,39.529306,N,P,dm,L-D: 24H,4,7,805,Baleares,BALEARS (ILLES),Calvià,2021-01-04,1.249,,,1.419,,1.139,,1.229,,,,,,
411,14143,AUTONETOIL,"CALLE JOAN DE AUSTRIA, 72",INCA                     ,07300,2.907,39.714194,D,P,dm,L-D: 24H,4,7,822,Baleares,BALEARS (ILLES),Inca,2021-01-18,1.249,,,,,1.139,,1.169,,,,,,
412,2583,CEPSA,"CARRETERA PALMA NOVA - CALVIA KM. 5,5",CALVIA                   ,07184,2.507667,39.559833,I,P,dm,L-D: 06:00-22:00,4,7,805,Baleares,BALEARS (ILLES),Calvià,2021-01-07,1.249,,,1.424,,1.139,,1.239,,,,,,
413,2587,CEPSA,"CALLE BINIAMAR, 16",PALMA                    ,07008,2.678806,39.581722,D,P,dm,L-D: 06:00-22:00,4,7,836,Baleares,BALEARS (ILLES),Palma de Mallorca,2021-01-09,1.269,1.329,,1.414,,1.175,,1.245,,,,,,
414,2613,CEPSA,CARRETERA VIEJA DE BUÑOLA KM. 15,PALMA                    ,07009,2.668944,39.593333,D,P,dm,L-S: 06:00-22:00; D: 08:00-16:00,4,7,836,Baleares,BALEARS (ILLES),Palma de Mallorca,2021-01-10,1.269,,,1.414,,1.175,,1.245,,,,,,
415,2661,CEPSA,"PLAZA FRANCESC GARCIA I ORELL, S/N",PALMA                    ,07006,2.660472,39.573,D,P,dm,L-V: 08:00-20:00; S: 08:00-14:00,4,7,836,Baleares,BALEARS (ILLES),Palma de Mallorca,2021-01-09,1.269,,,,,1.175,,,,,,,,
416,13588,GALP,"CALLE FUSTER, 35",POLLENÇA                 ,07460,3.030611,39.885639,D,P,dm,L-D: 06:00-22:00,4,7,839,Baleares,BALEARS (ILLES),Pollença,2021-01-08,1.269,,,,,1.174,,,,,,,,
417,13028,EROSKI,"AVENIDA TALAIOT, 1",SANT LLUIS               ,07710,4.259028,39.8585,D,P,dm,L-D: 24H,4,7,848,Baleares,BALEARS (ILLES),Sant Lluís,2021-01-25,1.269,,,,,1.199,,,,,,,,
418,13184,PETROEST,"CALLE GREMI CIRUGIANS I BARBERS, 11",PALMA                    ,07009,2.65825,39.600639,D,P,dm,L-D: 24H,4,7,836,Baleares,BALEARS (ILLES),Palma de Mallorca,2021-01-12,1.169,,,,,1.089,,,,,,,,
419,13162,PETROEST,"CALLE GABRIEL ALZAMORA, 25",PALMA                    ,07008,2.674778,39.589306,D,P,dm,L-D: 24H,4,7,836,Baleares,BALEARS (ILLES),Palma de Mallorca,2021-01-13,1.169,,,,,1.089,,,,,,,,
420,12568,SET&GO,"CALLE GREMI SELLETERS I BASTERS, 12",PALMA                    ,07009,2.658472,39.605528,N,P,dm,L-D: 24H,4,7,836,Baleares,BALEARS (ILLES),Palma de Mallorca,2021-01-18,1.169,,,,,1.089,,,,,0.639,,,
421,2695,BP AMANECER,"CALLE ALFONS EL MAGNANIM, 90",PALMA                    ,07004,2.654472,39.594167,N,P,dm,L-D: 24H,4,7,836,Baleares,BALEARS (ILLES),Palma de Mallorca,2021-01-20,1.289,,,1.425,,1.185,,1.254,,,,,,
422,2565,CEPSA,"AVENIDA JOAN MIRO, 22",PALMA                    ,07014,2.626444,39.565778,D,P,dm,L-D: 06:00-22:00,4,7,836,Baleares,BALEARS (ILLES),Palma de Mallorca,2021-01-11,1.289,1.349,,,,1.175,,1.245,,,,,,
423,2604,CEPSA,"CARRETERA C-711 KM. 16,5",BUNYOLA                  ,07110,2.69025,39.712667,D,P,dm,L-D: 07:00-21:30,4,7,804,Baleares,BALEARS (ILLES),Bunyola,2021-01-04,1.289,1.349,,,,1.165,,1.235,,,,,,
424,2695,BP AMANECER,"CALLE ALFONS EL MAGNANIM, 90",PALMA                    ,07004,2.654472,39.594167,N,P,dm,L-D: 24H,4,7,836,Baleares,BALEARS (ILLES),Palma de Mallorca,2021-01-18,1.289,,,1.425,,1.185,,1.254,,,,,,
425,2565,CEPSA,"AVENIDA JOAN MIRO, 22",PALMA                    ,07014,2.626444,39.565778,D,P,dm,L-D: 06:00-22:00,4,7,836,Baleares,BALEARS (ILLES),Palma de Mallorca,2021-01-10,1.289,1.349,,,,1.175,,1.245,,,,,,
426,2742,CEPSA,"CARRETERA C-711 KM. 16,5",BUNYOLA                  ,07110,2.68975,39.712917,I,P,dm,L-D: 07:00-21:00,4,7,804,Baleares,BALEARS (ILLES),Bunyola,2021-01-04,1.289,1.349,,,,1.165,,1.235,,,,,,
427,2575,CEPSA,"CALLE ES CARRERO, 0",SON MORO                 ,07560,3.382056,39.59625,D,P,dm,L-D: 06:00-23:00,4,7,847,Baleares,BALEARS (ILLES),Sant Llorenç des Cardassar,2021-01-12,1.289,1.349,,,,1.165,,1.235,,,,,,
428,2695,BP AMANECER,"CALLE ALFONS EL MAGNANIM, 90",PALMA                    ,07004,2.654472,39.594167,N,P,dm,L-D: 24H,4,7,836,Baleares,BALEARS (ILLES),Palma de Mallorca,2021-01-25,1.289,,,1.425,,1.185,,1.254,,,,,,
429,2602,CEPSA,"CARRETERA VELLA DE SINEU PMV3011 KM. 15,5",SANTA EUGENIA            ,07142,2.834306,39.612667,I,P,dm,L-S: 06:30-20:30,4,7,849,Baleares,BALEARS (ILLES),Santa Eugènia,2021-01-05,1.289,1.349,,,,1.165,0.771,1.235,,,,,,
430,2664,CEPSA,"PLAZA HOSTALS, 4",SANTA MARIA DEL CAMI     ,07320,2.773861,39.651694,D,P,dm,L-S: 06:30-20:30,4,7,852,Baleares,BALEARS (ILLES),Santa María del Camí,2021-01-14,1.289,,,,,1.169,,,,,,,,
431,2661,CEPSA,"PLAZA FRANCESC GARCIA I ORELL, S/N",PALMA                    ,07006,2.660472,39.573,D,P,dm,L-V: 08:00-20:00; S: 08:00-14:00,4,7,836,Baleares,BALEARS (ILLES),Palma de Mallorca,2021-01-14,1.289,,,,,1.189,,,,,,,,
432,2661,CEPSA,"PLAZA FRANCESC GARCIA I ORELL, S/N",PALMA                    ,07006,2.660472,39.573,D,P,dm,L-V: 08:00-20:00; S: 08:00-14:00,4,7,836,Baleares,BALEARS (ILLES),Palma de Mallorca,2021-01-21,1.289,,,,,1.189,,,,,,,,
433,2409,REPSOL,"CALLE RECH ESQ CREU, S/N",BINISSALEM               ,07350,2.839972,39.686861,D,P,dm,L-D: 06:00-22:00,4,7,802,Baleares,BALEARS (ILLES),Binissalem,2021-01-04,1.289,,,,,1.169,,,,,,,,
434,13582,GALP,"PLAZA SON VILAR, 14",SON VILAR                ,07720,4.2795,39.882944,N,P,dm,L-D: 24H,4,7,809,Baleares,BALEARS (ILLES),Castell (Es),2021-01-30,1.289,,,,,1.189,,,,,,,,
435,2409,REPSOL,"CALLE RECH ESQ CREU, S/N",BINISSALEM               ,07350,2.839972,39.686861,D,P,dm,L-D: 06:00-22:00,4,7,802,Baleares,BALEARS (ILLES),Binissalem,2021-01-03,1.289,,,,,1.169,,,,,,,,
436,2712,REPSOL,"CR C-713, 13,1",SANTA MARIA DEL CAMI     ,07320,2.757056,39.64825,I,P,dm,L-D: 06:00-22:00,4,7,852,Baleares,BALEARS (ILLES),Santa María del Camí,2021-01-10,1.289,,,1.459,,1.179,,,,,,,,
437,2409,REPSOL,"CALLE RECH ESQ CREU, S/N",BINISSALEM               ,07350,2.839972,39.686861,D,P,dm,L-D: 06:00-22:00,4,7,802,Baleares,BALEARS (ILLES),Binissalem,2021-01-06,1.289,,,,,1.169,,,,,,,,
438,2651,REPSOL,"CARRETERA PALMA-PTO ALCUDIA KM. 8,9",MARRATXINET              ,07141,2.718,39.615806,I,P,dm,L-D: 24H,4,7,831,Baleares,BALEARS (ILLES),Marratxí,2021-01-03,1.289,,,1.419,,1.169,,1.229,,,,,,
439,2684,CEPSA,"CARRETERA C-715 KM. 42,5",PETRA                    ,07520,3.133833,39.576111,I,P,dm,L-V: 06:00-21:00; S: 07:00-20:00; D: 10:00-20:00,4,7,837,Baleares,BALEARS (ILLES),Petra,2021-01-03,1.289,1.349,,,,1.159,,1.229,,,,,,
440,2742,CEPSA,"CARRETERA C-711 KM. 16,5",BUNYOLA                  ,07110,2.68975,39.712917,I,P,dm,L-D: 07:00-21:00,4,7,804,Baleares,BALEARS (ILLES),Bunyola,2021-01-03,1.289,1.349,,,,1.159,,1.229,,,,,,
441,12188,CEPSA,"RONDA DE PEGUERA, SN",CALVIA                   ,07184,2.451583,39.544306,D,P,OM,L-D: 06:00-22:00,4,7,805,Baleares,BALEARS (ILLES),Calvià,2021-01-12,1.289,,,1.434,,1.179,,1.249,,,,,,
442,2648,BP,"CALLE LLUC  ESQUINA SELVA, INCA, S/N",INCA                     ,07300,2.911306,39.729278,D,P,dm,L-D: 24H,4,7,822,Baleares,BALEARS (ILLES),Inca,2021-01-05,1.289,,,1.429,,1.169,,1.249,,,,,,
443,2648,BP,"CALLE LLUC  ESQUINA SELVA, INCA, S/N",INCA                     ,07300,2.911306,39.729278,D,P,dm,L-D: 24H,4,7,822,Baleares,BALEARS (ILLES),Inca,2021-01-02,1.289,,,1.429,,1.169,,1.249,,,,,,
444,2732,BP LLUCMAJOR,"CALLE LLUCMAJOR, 109",PALMA                    ,07007,2.678639,39.559083,I,P,dm,L-D: 24H,4,7,836,Baleares,BALEARS (ILLES),Palma de Mallorca,2021-01-05,1.289,,,1.431,,1.159,,1.249,,,,,,
445,2720,REPSOL,CARRETERA PALMA-PUERTO ANDRATX KM. 19,COSTA DE LA CALMA        ,07183,2.486722,39.526472,D,P,dm,L-S: 06:00-22:00,4,7,805,Baleares,BALEARS (ILLES),Calvià,2021-01-23,1.289,,,1.439,,1.179,,1.269,,,,,,
446,2698,BP PUERTO POLLENSA,"CALLE JUAN XXIII, 133",POLLENÇA                 ,07460,3.077333,39.904694,I,P,dm,L-D: 05:00-23:00,4,7,839,Baleares,BALEARS (ILLES),Pollença,2021-01-05,1.289,,,1.431,,1.179,,1.269,,,,,,
447,2650,REPSOL,"CL CECILIO METELO-ESQ.PUIG MARI, S.",POLLENÇA                 ,07460,3.016083,39.873722,D,P,dm,L-D: 06:00-22:00,4,7,839,Baleares,BALEARS (ILLES),Pollença,2021-01-06,1.289,,,1.439,,1.199,,1.289,,,,,,
448,2698,BP PUERTO POLLENSA,"CALLE JUAN XXIII, 133",POLLENÇA                 ,07460,3.077333,39.904694,I,P,dm,L-D: 05:00-23:00,4,7,839,Baleares,BALEARS (ILLES),Pollença,2021-01-07,1.289,,,1.431,,1.199,,1.289,,,,,,
449,11995,REPSOL,"CALLE MANACOR, 309",CASA BLANCA (SA)         ,07198,2.714194,39.572528,I,P,dm,L-D: 24H,4,7,836,Baleares,BALEARS (ILLES),Palma de Mallorca,2021-01-03,1.289,,,1.419,,1.159,,1.239,,,,,,
450,2735,REPSOL,"CALLE CAMI SALARD, S/N",PALMA                    ,07010,2.685139,39.576167,D,P,dm,L-D: 06:00-22:00,4,7,836,Baleares,BALEARS (ILLES),Palma de Mallorca,2021-01-03,1.289,,,1.419,,1.159,,1.239,,,0.655,,,
451,14906,REPSOL,"CALLE VIA MAJORICA, SN",MANACOR                  ,07500,3.194417,39.572111,D,P,OM,L-D: 06:00-22:00,4,7,827,Baleares,BALEARS (ILLES),Manacor,2021-01-03,1.289,,,1.429,,1.159,,1.239,,,0.615,,,
452,2684,CEPSA,"CARRETERA C-715 KM. 42,5",PETRA                    ,07520,3.133833,39.576111,I,P,dm,L-V: 06:00-21:00; S: 07:00-20:00; D: 10:00-20:00,4,7,837,Baleares,BALEARS (ILLES),Petra,2021-01-08,1.289,1.349,,,,1.169,,1.239,,,,,,
453,2587,CEPSA,"CALLE BINIAMAR, 16",PALMA                    ,07008,2.678806,39.581722,D,P,dm,L-D: 06:00-22:00,4,7,836,Baleares,BALEARS (ILLES),Palma de Mallorca,2021-01-17,1.289,1.349,,1.434,,1.189,,1.259,,,,,,
454,2732,BP LLUCMAJOR,"CALLE LLUCMAJOR, 109",PALMA                    ,07007,2.678639,39.559083,I,P,dm,L-D: 24H,4,7,836,Baleares,BALEARS (ILLES),Palma de Mallorca,2021-01-07,1.289,,,1.431,,1.169,,1.259,,,,,,
455,2618,CEPSA,"CALLE CAMINO DE LOS REYES, 201",PALMA                    ,07010,2.633472,39.593,D,P,dm,L-D: 24H,4,7,836,Baleares,BALEARS (ILLES),Palma de Mallorca,2021-01-23,1.289,,,1.434,,1.189,,1.259,,,,,,
456,2611,BP ES FORTI,"CALLE PASCUAL RIBOT, S/N",PALMA                    ,07013,2.636444,39.579306,N,P,dm,L-D: 06:00-22:00,4,7,836,Baleares,BALEARS (ILLES),Palma de Mallorca,2021-01-09,1.289,,,1.431,,1.169,,1.259,,,,,,
457,2618,CEPSA,"CALLE CAMINO DE LOS REYES, 201",PALMA                    ,07010,2.633472,39.593,D,P,dm,L-D: 24H,4,7,836,Baleares,BALEARS (ILLES),Palma de Mallorca,2021-01-15,1.289,,,1.434,,1.189,,1.259,,,,,,
458,11617,REPSOL,CARRETERA CR C-713  PALMA-PUERTO ALCUDIA KM. 13,MARRATXINET              ,07141,2.756889,39.647944,D,P,dm,L-D: 06:00-22:00,4,7,831,Baleares,BALEARS (ILLES),Marratxí,2021-01-09,1.289,,,1.459,,1.179,0.859,1.259,,,,,,
459,2698,BP PUERTO POLLENSA,"CALLE JUAN XXIII, 133",POLLENÇA                 ,07460,3.077333,39.904694,I,P,dm,L-D: 05:00-23:00,4,7,839,Baleares,BALEARS (ILLES),Pollença,2021-01-04,1.289,,,1.431,,1.189,,1.279,,,,,,
460,2583,CEPSA,"CARRETERA PALMA NOVA - CALVIA KM. 5,5",CALVIA                   ,07184,2.507667,39.559833,I,P,dm,L-D: 06:00-22:00,4,7,805,Baleares,BALEARS (ILLES),Calvià,2021-01-30,1.289,,,1.464,,1.179,,1.279,,,,,,
461,14289,SHELL,"CARRER CAMÍ DE MUNTANYA ESQ CARRER CELLETERS, S/N",CABANETA (SA)            ,07141,2.715056,39.618611,D,P,OM,L-D: 06:00-00:00,4,7,831,Baleares,BALEARS (ILLES),Marratxí,2021-01-04,1.189,,,,,1.099,,,,,,,,
462,2718,REPSOL,"CARRETERA PM-334 KM. 1,1",PETRA                    ,07520,3.109028,39.625889,D,P,dm,L-S: 06:30-21:00; D: 07:00-21:00,4,7,837,Baleares,BALEARS (ILLES),Petra,2021-01-16,1.309,,,1.439,,1.189,0.865,1.268,,,,,,
463,2719,REPSOL,"CTRA. MA-11, 30",SOLLER                   ,07100,2.708389,39.765778,D,P,dm,L-S: 06:00-22:00; D: 07:00-21:00,4,7,857,Baleares,BALEARS (ILLES),Sóller,2021-01-23,1.309,,,1.459,,1.189,,,,,,,,
464,2633,CEPSA,CARRETERA AEROPUERTO KM. 5,MAO                      ,07701,4.227833,39.863861,D,P,dm,L-D: 07:00-22:00,4,7,829,Baleares,BALEARS (ILLES),Mahón,2021-01-10,1.309,,,,,1.209,0.8,,,,,,,
465,2605,E.S. FERRERIES,"CALLE DELS TEULERS, 2",FERRERIES                ,07750,4.020917,39.98775,D,P,dm,L-D: 07:00-22:00,4,7,819,Baleares,BALEARS (ILLES),Ferreries,2021-01-06,1.309,,,,,1.209,,,,,,,,
466,2625,REPSOL,"CARRETERA PM - 213 KM. 14,8",ESCORCA                  ,07315,2.89,39.812444,D,P,dm,L-D: 24H,4,7,815,Baleares,BALEARS (ILLES),Escorca,2021-01-11,1.309,,,1.439,,1.189,,,,,,,,
467,2633,CEPSA,CARRETERA AEROPUERTO KM. 5,MAO                      ,07701,4.227833,39.863861,D,P,dm,L-D: 07:00-22:00,4,7,829,Baleares,BALEARS (ILLES),Mahón,2021-01-06,1.309,,,,,1.209,0.8,,,,,,,
468,2578,BP,"CARRETERA MA-15 KM. 29,320",MONTUIRI                 ,07230,2.988139,39.560806,I,P,dm,L-S: 06:00-22:00; D: 08:00-21:00,4,7,834,Baleares,BALEARS (ILLES),Montuïri,2021-01-11,1.309,,,1.449,,1.179,0.772,1.249,,,,,,
469,9870,SHELL,"CARRETERA 3301 KM. 1,5",SINEU                    ,07510,3.02825,39.641944,D,P,dm,L-D: 24H,4,7,856,Baleares,BALEARS (ILLES),Sineu,2021-01-27,1.309,,,1.449,,1.189,0.829,1.269,,,,,,
470,9870,SHELL,"CARRETERA 3301 KM. 1,5",SINEU                    ,07510,3.02825,39.641944,D,P,dm,L-D: 24H,4,7,856,Baleares,BALEARS (ILLES),Sineu,2021-01-30,1.309,,,1.449,,1.189,0.829,1.269,,,,,,
